     2              OBSERVATION DATA                        RINEX VERSION / TYPE
OBSTORNX                                20-OCT-92 14:01     PGM / RUN BY / DATE
                                                            OBSERVER / AGENCY
4612 BOREHOLE                                               MARKER NAME
4612 BOREHOLE                                               MARKER NUMBER
100082              SR299                                   REC # / TYPE / VERS
     0              SR299                                   ANT # / TYPE
  5239677.9468  2522070.1559 -2614113.0058                  APPROX POSITION XYZ
        0.5250        0.0000        0.0000                  ANTENNA: DELTA H/E/N
     1     1                                                WAVELENGTH FACT L1/2
     4    C1    L1    P2    L2                              # / TYPES OF OBSERV
  1992     8    14     5    58   30.000000                  TIME OF FIRST OBS
                                                            END OF HEADER
 92  8 14  5 58 30.0000000  0  5G26G 3G16G17G24                     -1.000000000
  -3063788.173   -16100328.520 9  -3063788.020   -12545588.776 8
  -1836888.970    -9652905.690 8  -1836886.030    -7521623.225 7
   -610290.499    -3207102.218 7   -610286.443    -2498919.962 7
   -478211.789    -2513018.914 7   -478205.074    -1958074.839 7
    282458.141     1484315.548 7    282456.013     1156730.156 6
 92  8 14  5 58 45.0000000  0  5G26G 3G16G17G24                      0.000000232
  20303528.958   106695751.81119  20303528.865    83139668.61419
  21527190.152   113126174.79018  21527195.645    88150387.52017
  22758209.790   119595177.64517  22758209.681    93191168.21517
  22877922.414   120224280.73017  22877926.459    93681379.40917
  23655480.353   124310404.27916  23655484.266    96865370.64416
 92  8 14  6 42 45.0000000  0  6G26G 3G16G17G12G23                  -0.000000090
  21070923.659   110728433.182 8  21070925.371    86282015.023 8
  21911622.329   115146335.510 7  21911623.109    89724535.725 7
  23508143.799   123536093.462 7  23508149.550    96262004.611 7
  21530645.313   113144265.782 8  21530645.458    88164483.929 8
  23589219.942   123962191.470 6  23589228.474    96594037.253 6
  23076067.749   121265528.496 6  23076069.822    94492739.355 7
 92  8 14  6 43  0.0000000  0  6G26G 3G16G17G12G23                  -0.000000066
  21076493.881   110757682.895 8  21076491.400    86304806.983 8
  21916203.281   115170410.576 8  21916204.190    89743295.486 7
  23512692.893   123559965.112 7  23512692.171    96280605.886 7
  21524010.860   113109403.497 8  21524011.139    88137318.504 8
  23579540.757   123911293.011 6  23579542.089    96554376.125 6
  23070717.589   121237410.214 7  23070719.333    94470828.997 7
 92  8 14  6 43 15.0000000  0  6G26G 3G16G17G12G23                   0.000000008
  21082050.935   110786898.414 8  21082050.923    86327572.298 8
  21920789.922   115194526.540 7  21920793.059    89762087.136 7
  23517210.503   123583771.314 7  23517221.841    96299156.125 6
  21517376.617   113074527.311 8  21517374.423    88110142.260 8
  23569841.192   123860325.455 6  23569843.053    96514661.195 6
  23065351.266   121209207.000 7  23065352.445    94448852.490 7
 92  8 14  6 43 30.0000000  0  6G26G 3G16G17G12G23                  -0.000000062
  21087664.611   110816392.482 8  21087663.451    86350554.663 8
  21925448.293   115218993.442 8  21925449.193    89781152.225 7
  23521799.544   123607819.887 7  23521797.871    96317895.204 6
  21510793.194   113039947.192 8  21510794.041    88083196.694 8
  23560183.069   123809599.675 6  23560189.529    96475134.628 6
  23060022.629   121181227.820 6  23060028.423    94427050.509 7
 92  8 14  6 43 45.0000000  0  6G26G 3G16G17G12G23                   0.000000019
  21093240.529   110845705.129 8  21093241.705    86373395.679 8
  21930080.281   115243351.707 7  21930084.173    89800132.693 7
  23526328.865   123631651.630 7  23526333.628    96336465.370 6
  21504182.599   113005206.280 8  21504183.312    88056125.866 8
  23550495.439   123758656.835 6  23550496.409    96435438.920 6
  23054656.763   121153010.006 7  23054658.511    94405062.618 7
 92  8 14  6 43 60.0000000  0  6G26G 3G16G17G12G23                  -0.000000044
  21098870.778   110875298.286 8  21098873.088    86396455.253 8
  21934782.339   115268067.184 7  21934787.365    89819391.479 7
  23530906.198   123655731.677 7  23530915.652    96355228.994 6
  21497631.372   112970773.349 8  21497630.941    88029295.003 8
  23540847.100   123707963.472 6  23540850.035    96395937.630 6
  23049324.595   121125016.272 6  23049330.744    94383249.300 7
 92  8 14  6 44 15.0000000  0  6G26G 3G16G17G12G23                   0.000000043
  21104471.432   110904710.921 8  21104470.122    86419374.171 8
  21939468.319   115292680.176 8  21939471.300    89838570.410 7
  23535452.061   123679599.348 7  23535458.000    96373827.148 7
  21491049.034   112936190.930 8  21491050.122    88002347.647 8
  23531159.464   123657060.598 6  23531163.786    96356273.062 6
  23043959.766   121096785.908 7  23043959.416    94361251.613 7
 92  8 14  6 44 30.0000000  0  6G26G 3G16G17G12G23                  -0.000000019
  21110122.233   110934415.078 8  21110122.386    86442520.249 8
  21944220.362   115317659.331 8  21944224.671    89858034.670 7
  23540049.858   123703723.937 7  23540048.750    96392625.504 7
  21484531.444   112901930.762 8  21484530.387    87975651.424 8
  23521521.291   123606417.660 6  23521526.033    96316811.072 6
  23038632.477   121068789.814 7  23038631.939    94339436.485 7
 92  8 14  6 44 45.0000000  0  6G26G 3G16G17G12G23                  -0.000000130
  21115801.468   110964256.661 8  21115801.775    86465773.395 8
  21949012.644   115342847.943 7  21949018.143    89877662.135 7
  23544655.703   123727950.817 7  23544657.981    96411503.534 6
  21478044.048   112867839.267 8  21478043.232    87949086.608 8
  23511903.089   123555878.665 6  23511909.511    96277430.024 6
  23033322.038   121040871.267 7  23033318.974    94317681.779 7
 92  8 14  6 45  0.0000000  0  6G26G 3G16G17G12G23                   0.000000006
  21121420.314   110993778.899 8  21121419.182    86488777.738 8
  21953761.371   115367785.674 7  21953762.898    89897094.117 7
  23549196.921   123751823.077 7  23549200.474    96430105.283 6
  21471500.569   112833458.052 8  21471500.708    87922296.067 8
  23502219.850   123504983.901 6  23502224.074    96237771.779 6
  23027939.134   121012568.919 7  23027933.463    94295628.011 7
 92  8 14  6 45 15.0000000  0  6G26G 3G16G17G12G23                  -0.000000005
  21127093.963   111023602.123 8  21127094.346    86512016.588 8
  21958576.323   115393090.418 8  21958578.225    89916812.074 7
  23553791.670   123775960.644 7  23553794.656    96448913.692 6
  21465017.898   112799408.387 8  21465021.267    87895763.838 8
  23492587.042   123454352.156 6  23492589.418    96198318.474 6
  23022591.096   120984500.789 7  23022591.783    94273756.725 7
 92  8 14  6 45 30.0000000  0  6G26G 3G16G17G12G23                  -0.000000066
  21132799.930   111053579.184 8  21132798.787    86535375.317 8
  21963436.278   115418614.655 8  21963435.811    89936701.075 7
  23558404.890   123800216.279 6  23558408.873    96467814.139 6
  21458573.527   112765545.989 8  21458577.468    87869377.559 8
  23482975.216   123403836.669 6  23482977.615    96158955.746 6
  23017265.698   120956519.632 7  23017267.877    94251953.220 7
 92  8 14  6 45 45.0000000  0  6G26G 3G16G17G12G23                  -0.000000080
  21138504.357   111083555.148 8  21138503.014    86558733.175 8
  21968307.323   115444204.166 8  21968305.081    89956640.922 7
  23563016.767   123824436.855 6  23563019.107    96486687.275 6
  21452138.403   112731718.185 8  21452140.249    87843018.224 8
  23473356.454   123353283.733 7  23473356.250    96119563.866 6
  23011934.958   120928470.405 7  23011930.534    94230096.692 7
 92  8 14  6 46  0.0000000  0  6G26G 3G16G17G12G23                  -0.000000048
  21144204.907   111113530.740 8  21144207.418    86582090.755 8
  21973186.099   115469860.306 8  21973187.522    89976632.705 7
  23567616.732   123848625.836 6  23567622.603    96505535.823 6
  21445707.278   112697925.393 8  21445709.448    87816686.168 8
  23463728.524   123302695.621 7  23463730.633    96080144.574 6
  23006573.754   120900354.089 7  23006579.688    94208187.874 7
 92  8 14  6 46 15.0000000  0  6G26G 3G16G17G12G23                   0.000000031
  21149913.842   111143507.396 8  21149911.785    86605449.183 8
  21978082.550   115495583.333 8  21978082.442    89996676.583 7
  23572219.559   123872781.857 6  23572218.350    96524358.638 6
  21439285.291   112664165.624 8  21439285.423    87790379.859 8
  23454095.025   123252073.238 6  23454097.274    96040698.576 6
  23001212.560   120872171.821 7  23001216.781    94186227.664 7
 92  8 14  6 46 30.0000000  0  6G26G 3G16G17G12G23                  -0.000000045
  21155673.502   111173796.617 8  21155675.870    86629051.151 8
  21983049.573   115521683.212 8  21983048.837    90017014.140 7
  23576867.477   123897217.830 6  23576869.082    96543399.607 6
  21432921.243   112630746.327 8  21432925.696    87764338.841 8
  23444513.751   123201727.308 6  23444515.782    96001467.969 6
  22995903.434   120844236.179 7  22995901.047    94164459.623 7
 92  8 14  6 46 45.0000000  0  6G26G 3G16G17G12G23                   0.000000015
  21161408.759   111203936.594 8  21161411.068    86652536.826 8
  21987999.374   115547699.593 8  21987999.828    90037286.618 7
  23581483.553   123921473.475 6  23581484.767    96562300.066 6
  21426539.902   112597206.155 8  21426543.453    87738203.623 8
  23434901.449   123151198.319 7  23434899.704    95962094.737 6
  22990542.793   120816087.821 7  22990543.860    94142525.838 7
 92  8 14  6 46 60.0000000  0  6G26G 3G16G17G12G23                   0.000000011
  21167175.893   111234239.090 8  21167177.436    86676149.141 8
  21992989.862   115573946.786 8  21992994.744    90057738.965 7
  23586121.415   123945861.604 6  23586125.414    96581303.742 6
  21420197.738   112563858.859 8  21420197.429    87712218.713 8
  23425307.202   123100801.207 7  23425310.189    95922824.275 6
  22985201.701   120788042.193 7  22985207.685    94120672.093 7
 92  8 14  6 47 15.0000000  0  6G26G 3G16G17G12G23                   0.000000038
  21172945.050   111264546.211 8  21172943.952    86699765.059 8
  21998001.252   115600269.818 7  21998003.596    90078250.378 7
  23590756.855   123970229.004 6  23590761.882    96600291.303 6
  21413862.244   112530548.612 8  21413858.701    87686262.684 8
  23415709.692   123050381.955 6  23415715.970    95883536.556 6
  22979855.441   120759946.404 7  22979860.503    94098779.276 7
 92  8 14  6 47 30.0000000  0  6G26G 3G16G17G12G23                   0.000000091
  21178713.151   111294854.788 8  21178711.723    86723382.118 8
  22003025.590   115626670.890 8  22003027.553    90098822.641 7
  23595393.416   123994577.297 6  23595396.420    96619263.960 6
  21407526.246   112497274.715 8  21407526.888    87660334.966 8
  23406115.702   122999943.196 7  23406117.800    95844233.654 6
  22974507.799   120731803.356 7  22974505.788    94076849.616 7
 92  8 14  6 47 45.0000000  0  6G26G 3G16G17G12G23                  -0.000000029
  21184537.331   111325473.057 8  21184538.913    86747240.488 8
  22008124.314   115653459.869 8  22008125.075    90119697.140 7
  23600083.880   124019216.851 6  23600084.920    96638463.585 6
  21401259.386   112464345.143 8  21401260.842    87634675.556 8
  23396573.173   122949795.868 7  23396574.598    95805157.835 6
  22969199.630   120703922.742 7  22969200.287    94055124.476 7
 92  8 14  6 47 60.0000000  0  6G26G 3G16G17G12G23                  -0.000000030
  21190335.593   111355943.131 8  21190337.171    86770983.384 8
  22013206.196   115680178.334 8  22013209.423    90140516.699 7
  23604735.663   124043688.133 6  23604740.668    96657532.094 6
  21394970.278   112431297.661 8  21394971.624    87608924.260 8
  23386995.936   122899482.146 6  23387000.459    95765952.336 6
  22963855.935   120675845.433 7  22963857.108    94033246.049 7
 92  8 14  6 48 15.0000000  0  6G26G 3G16G17G12G23                  -0.000000011
  21196134.735   111386422.827 8  21196137.745    86794733.764 8
  22018307.700   115706982.921 8  22018310.650    90161403.367 7
  23609396.783   124068146.485 6  23609396.629    96676590.475 6
  21388690.203   112398289.642 8  21388690.647    87583203.708 8
  23377422.474   122849159.264 6  23377425.310    95726739.701 6
  22958504.888   120647730.494 7  22958507.499    94011338.295 7
 92  8 14  6 48 30.0000000  0  6G26G 3G16G17G12G23                   0.000000022
  21201935.270   111416913.844 8  21201939.504    86818492.996 8
  22023427.814   115733874.300 8  22023427.905    90182357.674 7
  23614040.063   124092594.086 6  23614048.595    96695640.498 7
  21382419.138   112365324.975 8  21382417.678    87557516.951 8
  23367841.126   122798828.940 6  23367847.283    95687521.285 6
  22953148.787   120619583.991 7  22953151.643    93989405.961 7
 92  8 14  6 48 45.0000000  0  6G26G 3G16G17G12G23                  -0.000000030
  21207776.544   111447572.948 8  21207774.218    86842383.174 8
  22028591.125   115761009.686 8  22028591.342    90203502.084 7
  23618725.652   124117188.025 6  23618727.920    96714804.553 7
  21376184.322   112332562.797 8  21376183.246    87531987.991 8
  23358299.235   122748648.967 7  23358298.364    95648420.057 6
  22947821.312   120591562.919 7  22947819.167    93967571.364 7
 92  8 14  6 49  0.0000000  0  6G26G 3G16G17G12G23                  -0.000000068
  21213610.624   111478249.243 8  21213611.473    86866286.760 8
  22033768.683   115788238.934 8  22033773.385    90224719.685 7
  23623406.659   124141774.883 6  23623406.391    96733963.108 7
  21369958.547   112299855.125 8  21369959.178    87506501.476 8
  23348744.975   122698469.991 6  23348750.114    95609319.570 6
  22942481.640   120563516.753 7  22942482.400    93945717.196 7
 92  8 14  6 49 15.0000000  0  6G26G 3G16G17G12G23                   0.000000102
  21219395.885   111508639.000 8  21219394.445    86889967.061 8
  22038913.005   115815256.532 7  22038914.653    90245772.317 7
  23628032.169   124166050.098 6  23628027.261    96752878.798 7
  21363687.655   112266898.366 8  21363687.467    87480820.867 8
  23339140.134   122647987.212 6  23339142.590    95569982.362 6
  22937078.630   120535137.744 7  22937082.294    93923603.665 7
 92  8 14  6 49 30.0000000  0  6G26G 3G16G17G12G23                  -0.000000005
  21225267.753   111539513.873 8  21225269.493    86914025.401 8
  22044162.590   115842832.287 8  22044162.142    90267259.907 7
  23632730.340   124190783.157 6  23632732.818    96772151.269 7
  21357517.590   112234465.457 8  21357515.937    87455548.482 8
  23329621.635   122597971.159 6  23329624.613    95531008.840 6
  22931761.345   120507194.224 7  22931764.093    93901829.517 7
 92  8 14  6 49 45.0000000  0  6G26G 3G16G17G12G23                   0.000000006
  21231119.552   111570260.284 8  21231120.580    86937983.627 8
  22049398.568   115870350.535 8  22049398.926    90288702.663 7
  23637406.132   124215355.608 6  23637409.764    96791298.581 7
  21351325.592   112201944.289 8  21351327.609    87430207.313 8
  23320073.806   122547806.982 6  23320078.693    95491919.893 6
  22926412.327   120479070.946 7  22926412.408    93879915.265 7
 92  8 14  6 49 60.0000000  0  6G26G 3G16G17G12G23                   0.000000036
  21236977.043   111601037.608 8  21236977.057    86961965.918 8
  22054654.445   115897967.356 8  22054653.986    90310222.254 7
  23642085.948   124239923.207 6  23642084.805    96810442.093 7
  21345151.523   112169495.336 8  21345152.774    87404922.397 8
  23310535.280   122497651.688 7  23310535.447    95452837.893 6
  22921049.436   120450925.765 7  22921056.312    93857983.946 7
 92  8 14  6 50 15.0000000  0  6G26G 3G16G17G12G23                  -0.000000015
  21242869.994   111632003.272 8  21242870.109    86986094.983 8
  22059955.239   115925841.217 8  22059957.953    90331942.114 7
  23646786.094   124264646.641 6  23646789.019    96829707.061 7
  21339021.963   112137279.282 8  21339022.018    87379818.974 8
  23301017.905   122447664.546 7  23301021.500    95413886.871 6
  22915723.544   120422918.010 7  22915726.610    93836159.708 7
 92  8 14  6 50 30.0000000  0  6G26G 3G16G17G12G23                  -0.000000053
  21248766.062   111662997.319 8  21248768.079    87010246.183 8
  22065281.782   115953816.389 8  22065281.449    90353740.937 7
  23651489.022   124289371.697 6  23651494.270    96848973.278 7
  21332902.983   112105142.821 8  21332906.896    87354777.573 8
  23291511.150   122397690.211 7  23291513.178    95374945.885 6
  22910391.093   120394892.793 7  22910394.079    93814321.885 7
 92  8 14  6 50 45.0000000  0  6G26G 3G16G17G12G23                  -0.000000077
  21254673.259   111694023.847 8  21254671.979    87034422.668 8
  22070623.722   115981896.472 7  22070625.148    90375621.492 7
  23656199.613   124314104.020 6  23656200.670    96868245.197 7
  21326803.490   112073089.771 8  21326807.156    87329801.157 8
  23282005.438   122347733.357 7  23282005.978    95336018.487 6
  22905056.687   120366852.300 7  22905057.417    93792472.145 7
 92  8 14  6 50 60.0000000  0  6G26G 3G16G17G12G23                   0.000000110
  21260524.136   111724771.413 8  21260523.287    87058381.794 8
  22075928.755   116009770.607 8  22075929.411    90397341.565 7
  23660843.619   124338532.436 6  23660849.476    96887280.285 7
  21320665.229   112040809.991 8  21320664.522    87304648.100 8
  23272439.251   122297483.706 7  23272443.310    95296862.961 6
  22899656.046   120338484.741 7  22899659.740    93770367.560 7
 92  8 14  6 51 15.0000000  0  6G26G 3G16G17G12G23                   0.000000014
  21266469.221   111756020.049 8  21266470.187    87082731.356 8
  22081338.515   116038216.090 7  22081342.648    90419506.865 7
  23665580.727   124363436.107 6  23665588.971    96906685.723 7
  21314624.373   112009081.081 8  21314626.708    87279924.260 8
  23262970.754   122247719.419 7  23262973.728    95258085.606 6
  22894348.923   120310568.618 7  22894347.476    93748614.727 7
 92  8 14  6 51 30.0000000  0  6G26G 3G16G17G12G23                   0.000000023
  21272393.234   111787156.949 8  21272395.335    87106993.849 8
  22086742.431   116066618.858 7  22086747.508    90441638.864 7
  23670303.253   124388205.149 6  23670302.582    96925986.170 7
  21308573.681   111977288.480 8  21308577.019    87255150.796 8
  23253477.561   122197827.353 7  23253480.083    95219208.715 6
  22889005.925   120282490.979 7  22889004.478    93726736.043 7
 92  8 14  6 51 45.0000000  0  6G26G 3G16G17G12G23                   0.000000033
  21278328.017   111818337.443 8  21278328.538    87131290.321 8
  22092174.102   116095135.484 8  22092174.037    90463859.591 7
  23675014.395   124412997.362 6  23675019.399    96945304.750 7
  21302545.353   111945586.403 8  21302544.315    87230447.878 8
  23243988.238   122147964.622 7  23243990.796    95180354.673 6
  22883658.237   120254411.688 7  22883660.923    93704856.079 7
 92  8 14  6 52  0.0000000  0  6G26G 3G16G17G12G23                   0.000000042
  21284269.245   111849560.804 8  21284270.141    87155620.191 8
  22097621.568   116123764.112 8  22097621.637    90486167.602 7
  23679737.638   124437813.173 6  23679742.657    96964641.700 7
  21296526.553   111913969.394 8  21296528.041    87205811.245 8
  23234507.355   122098130.244 7  23234508.374    95141522.740 6
  22878317.745   120226331.213 7  22878317.382    93682975.172 7
 92  8 14  6 52 15.0000000  0  6G26G 3G16G17G12G23                   0.000000046
  21290220.072   111880828.614 8  21290219.956    87179984.689 8
  22103093.192   116152506.691 7  22103091.159    90508564.380 7
  23684465.345   124462657.442 6  23684470.359    96984000.850 7
  21290525.052   111882436.295 8  21290527.488    87181239.981 8
  23225021.497   122048326.727 7  23225030.837    95102714.811 6
  22872975.461   120198250.321 7  22872973.520    93661093.952 7
 92  8 14  6 52 30.0000000  0  6G26G 3G16G17G12G23                   0.000000046
  21296177.789   111912141.626 8  21296178.863    87204384.418 8
  22108582.510   116181364.249 8  22108582.808    90531050.767 7
  23689201.619   124487531.732 6  23689203.516    97003383.336 7
  21284536.086   111850988.064 8  21284542.845    87156734.869 8
  23215558.462   121998556.140 7  23215559.329    95063932.570 6
  22867625.810   120170168.716 7  22867630.255    93639212.172 7
 92  8 14  6 52 45.0000000  0  6G26G 3G16G17G12G23                  -0.000000054
  21302174.247   111943657.228 8  21302175.832    87228942.004 8
  22114124.795   116210490.154 8  22114125.524    90553746.260 7
  23693964.642   124512588.583 6  23693971.907    97022908.100 7
  21278603.196   111819778.516 8  21278604.108    87132415.733 8
  23206127.021   121948972.584 7  23206124.631    95025296.056 6
  22862310.412   120142239.110 7  22862315.189    93617448.865 7
 92  8 14  6 53  0.0000000  0  6G26G 3G16G17G12G23                  -0.000000062
  21308153.133   111975078.486 8  21308155.338    87253426.081 8
  22119657.237   116239586.335 7  22119662.090    90576418.573 7
  23698714.293   124537529.169 6  23698717.686    97042342.274 7
  21272653.250   111788508.342 8  21272653.347    87108049.365 8
  23196659.389   121899278.840 7  23196668.235    94986573.696 6
  22856971.337   120114163.078 7  22856972.497    93595571.436 7
 92  8 14  6 53 15.0000000  0  6G26G 3G16G17G12G23                   0.000000024
  21314116.231   112006398.773 8  21314115.627    87277831.468 8
  22125189.820   116268648.256 7  22125192.875    90599064.211 7
  23703433.731   124562347.981 6  23703441.270    97061681.557 7
  21266689.306   111757172.600 8  21266690.352    87083631.896 8
  23187184.863   121849470.869 7  23187189.858    94947762.329 6
  22851598.460   120085933.422 7  22851600.567    93573574.279 7
 92  8 14  6 53 30.0000000  0  6G26G 3G16G17G12G23                   0.000000008
  21320116.304   112037928.371 8  21320115.747    87302399.956 8
  22130770.576   116297986.322 7  22130775.473    90621925.017 7
  23708196.347   124587356.702 6  23708199.765    97081168.799 7
  21260773.009   111726081.251 8  21260773.865    87059404.870 8
  23177747.266   121799859.963 7  23177748.733    94909104.500 6
  22846259.348   120057859.196 7  22846258.218    93551698.253 7
 92  8 14  6 53 45.0000000  0  6G26G 3G16G17G12G23                  -0.000000014
  21326122.399   112069512.612 8  21326125.780    87327011.037 8
  22136380.852   116327448.524 7  22136382.182    90644882.556 7
  23712964.544   124612402.745 6  23712966.831    97100685.139 7
  21254873.555   111695084.414 8  21254875.606    87035251.484 8
  23168314.656   121750295.263 7  23168317.382    94870482.695 7
  22840916.996   120029788.950 7  22840917.114    93529825.327 7
 92  8 14  6 53 60.0000000  0  6G26G 3G16G17G12G23                   0.000000053
  21332115.644   112101001.330 8  21332118.364    87351547.669 8
  22141980.514   116356884.948 7  22141983.737    90667819.988 7
  23717710.679   124637334.854 6  23717710.994    97120112.694 7
  21248966.895   111664033.702 8  21248966.851    87011056.122 8
  23158864.829   121700627.089 7  23158866.336    94831780.240 7
  22835550.663   120001572.676 7  22835547.493    93507838.627 7
 92  8 14  6 54 15.0000000  0  6G26G 3G16G17G12G23                  -0.000000080
  21338180.184   112132857.700 8  21338179.935    87376370.788 8
  22147663.682   116386758.197 7  22147668.424    90691097.828 7
  23722516.677   124662615.539 6  23722521.261    97139811.931 7
  21243135.187   111633395.873 8  21243136.174    86987182.473 8
  23149478.965   121651319.039 7  23149483.340    94793358.439 7
  22830234.638   119973671.777 7  22830238.122    93486097.641 7
 92  8 14  6 54 30.0000000  0  6G26G 3G16G17G12G23                  -0.000000019
  21344194.444   112164460.851 8  21344193.566    87400996.602 8
  22153312.767   116416449.337 7  22153317.723    90714233.765 7
  23727279.825   124687627.051 6  23727280.538    97159301.376 7
  21237266.870   111602555.659 8  21237267.722    86963151.144 8
  23140042.492   121601753.040 7  23140051.248    94754735.602 7
  22824866.545   119945466.257 7  22824870.791    93464119.317 7
 92  8 14  6 54 45.0000000  0  6G26G 3G16G17G12G23                  -0.000000061
  21350244.886   112196273.141 8  21350247.724    87425785.365 8
  22159019.633   116446421.119 7  22159021.645    90737588.371 7
  23732080.115   124712831.747 6  23732077.299    97178941.312 7
  21231450.276   111571978.251 8  21231449.276    86939324.581 8
  23130654.889   121552392.852 7  23130657.591    94716273.143 7
  22819536.682   119917421.640 7  22819534.079    93442266.374 7
 92  8 14  6 55  0.0000000  0  6G26G 3G16G17G12G23                  -0.000000013
  21356283.324   112227987.344 8  21356282.489    87450497.721 8
  22164718.664   116476368.733 7  22164720.237    90760924.153 7
  23736851.481   124737924.447 6  23736852.033    97198494.049 7
  21225624.086   111541358.415 8  21225622.516    86915464.974 8
  23121243.767   121502934.071 7  23121244.924    94677733.845 7
  22814170.018   119889234.630 7  22814170.267    93420302.460 7
 92  8 14  6 55 15.0000000  0  6G26G 3G16G17G12G23                   0.000000024
  21362329.987   112259759.773 8  21362328.080    87475255.404 8
  22170438.947   116506448.019 7  22170444.128    90784362.529 7
  23741632.034   124763064.419 6  23741636.238    97218083.566 7
  21219816.862   111510854.246 8  21219817.520    86891695.483 8
  23111839.501   121453533.321 7  23111845.256    94639239.779 6
  22808805.588   119861061.362 7  22808808.829    93398349.266 7
 92  8 14  6 55 30.0000000  0  6G26G 3G16G17G12G23                   0.000000048
  21368387.402   112291597.706 8  21368386.634    87500064.168 8
  22176193.419   116536662.975 7  22176194.324    90807906.622 7
  23746424.290   124788255.895 6  23746430.741    97237713.258 7
  21214035.629   111480472.660 8  21214036.583    86868021.514 8
  23102454.640   121404195.543 7  23102456.848    94600794.814 7
  22803449.593   119832910.419 7  22803452.131    93376413.485 7
 92  8 14  6 55 45.0000000  0  6G26G 3G16G17G12G23                   0.000000054
  21374457.662   112323505.136 8  21374459.142    87524927.073 8
  22181972.868   116567016.182 7  22181970.100    90831558.457 7
  23751224.233   124813502.764 6  23751234.315    97257386.090 7
  21208276.269   111450220.019 8  21208279.452    86844448.023 8
  23093078.033   121354924.140 7  23093080.081    94562401.525 7
  22798096.643   119804788.475 7  22798100.693    93354500.241 7
 92  8 14  6 56  0.0000000  0  6G26G 3G16G17G12G23                  -0.000000055
  21380570.428   112355632.939 8  21380573.343    87549961.705 8
  22187800.380   116597657.969 7  22187801.273    90855435.136 7
  23756071.674   124838955.242 6  23756078.233    97277219.125 7
  21202575.324   111420246.350 8  21202575.651    86821091.911 8
  23083745.474   121305870.214 7  23083746.172    94524177.728 7
  22792783.562   119776849.047 7  22792783.502    93332729.232 7
 92  8 14  6 56 15.0000000  0  6G26G 3G16G17G12G23                  -0.000000086
  21386669.063   112387674.480 8  21386670.639    87574929.115 8
  22193625.820   116628279.861 7  22193628.664    90879296.330 7
  23760900.865   124864304.812 6  23760902.086    97296971.996 7
  21196862.225   111390241.816 8  21196865.734    86797711.758 8
  23074390.027   121256726.009 7  23074392.639    94485883.571 6
  22787442.001   119748785.955 7  22787444.014    93310861.919 7
 92  8 14  6 56 30.0000000  0  6G26G 3G16G17G12G23                   0.000000055
  21392718.860   112419478.378 8  21392722.715    87599711.352 8
  22199421.794   116658732.912 7  22199423.436    90903025.953 7
  23765675.420   124889401.268 6  23765678.012    97316527.612 7
  21191118.110   111360057.289 8  21191122.053    86774191.342 8
  23064995.681   121207343.385 7  23064996.171    94447403.606 6
  22782051.265   119720451.445 7  22782051.886    93288783.060 7
 92  8 14  6 56 45.0000000  0  6G26G 3G16G17G12G23                  -0.000000025
  21398845.973   112451662.572 8  21398846.667    87624789.915 8
  22205302.286   116689635.101 7  22205303.922    90927105.557 7
  23770520.917   124914861.524 6  23770522.922    97336366.711 7
  21185460.648   111330311.123 8  21185461.788    86751012.503 8
  23055670.274   121158341.043 7  23055671.587    94409219.995 7
  22776724.028   119692464.626 7  22776726.417    93266975.153 7
 92  8 14  6 56 60.0000000  0  6G26G 3G16G17G12G23                  -0.000000032
  21404952.879   112483767.581 8  21404956.041    87649806.777 8
  22211182.839   116720525.620 7  22211182.428    90951176.059 7
  23775343.272   124940223.170 6  23775349.312    97356128.973 7
  21179797.207   111300542.540 8  21179797.014    86727816.202 8
  23046334.124   121109259.240 7  23046331.634    94370974.447 7
  22771375.260   119664365.660 7  22771378.622    93245079.828 7
 92  8 14  6 57 15.0000000  0  6G26G 3G16G17G12G23                  -0.000000065
  21411081.388   112515950.116 8  21411079.683    87674884.067 8
  22217083.972   116751559.280 7  22217087.931    90975358.108 7
  23780185.869   124965643.191 6  23780186.332    97375936.760 7
  21174152.684   111270906.374 8  21174157.437    86704723.078 8
  23037000.814   121060253.365 7  23037006.621    94332788.076 7
  22766037.764   119636309.930 7  22766039.792    93223218.210 7
 92  8 14  6 57 30.0000000  0  6G26G 3G16G17G12G23                  -0.000000028
  21417190.717   112548059.855 8  21417189.711    87699904.614 8
  22222991.149   116782584.705 7  22222991.622    90999533.735 7
  23784999.951   124990969.360 6  23785006.217    97395671.381 7
  21168514.885   111241252.538 8  21168514.258    86681616.202 8
  23027664.128   121011172.753 6  23027666.411    94294543.479 7
  22760682.465   119608146.643 7  22760680.746    93201272.814 7
 92  8 14  6 57 45.0000000  0  6G26G 3G16G17G12G23                  -0.000000018
  21423316.288   112580247.949 8  21423314.895    87724986.216 8
  22228920.394   116813756.097 7  22228923.088    91023823.094 7
  23789833.992   125016355.422 6  23789836.278    97415452.673 7
  21162897.999   111211735.604 8  21162897.367    86658615.973 8
  23018339.907   120962172.637 6  23018342.002    94256361.584 7
  22755333.876   119580030.616 7  22755330.680    93179364.188 7
 92  8 14  6 58  0.0000000  0  6G26G 3G16G17G12G23                   0.000000057
  21429424.369   112612362.131 8  21429426.262    87750010.243 8
  22234849.675   116844924.683 7  22234854.516    91048110.303 7
  23794647.059   125041653.258 6  23794651.019    97435165.233 7
  21157273.952   111182207.036 8  21157278.269    86635606.707 8
  23008998.619   120913104.842 7  23009004.962    94218126.963 7
  22749961.242   119551809.236 7  22749960.088    93157373.512 7
 92  8 14  6 58 15.0000000  0  6G26G 3G16G17G12G23                   0.000000008
  21435581.636   112644707.785 8  21435582.403    87775214.610 8
  22240842.330   116876396.295 7  22240843.354    91072633.593 7
  23799501.710   125067168.622 6  23799505.436    97455047.260 7
  21151714.775   111152972.365 8  21151715.090    86612826.418 8
  22999707.386   120864276.080 7  22999713.648    94180078.589 7
  22744630.749   119523785.305 7  22744627.064    93135536.667 7
 92  8 14  6 58 30.0000000  0  6G26G 3G16G17G12G23                   0.000000033
  21441721.197   112676978.396 8  21441723.536    87800360.524 8
  22246830.590   116907864.816 7  22246831.610    91097154.501 7
  23804341.129   125092596.938 6  23804345.245    97474861.467 7
  21146149.728   111123727.847 8  21146150.293    86590038.503 8
  22990408.142   120815381.222 7  22990408.783    94141978.721 7
  22739270.856   119495648.880 7  22739273.121    93113612.167 7
 92  8 14  6 58 45.0000000  0  6G26G 3G16G17G12G23                   0.000000037
  21447879.769   112709325.910 8  21447878.567    87825566.348 8
  22252850.345   116939481.840 7  22252848.368    91121791.119 7
  23809194.853   125118091.432 6  23809196.426    97494727.245 7
  21140606.867   111094627.912 8  21140612.756    86567363.217 8
  22981119.766   120766572.478 7  22981121.036    94103945.949 7
  22733917.705   119467549.881 7  22733926.061    93091716.849 7
 92  8 14  6 59  0.0000000  0  6G26G 3G16G17G12G23                  -0.000000076
  21454077.707   112741904.296 8  21454078.513    87850952.091 8
  22258922.209   116971399.700 7  22258921.885    91146662.152 7
  23814087.157   125143805.664 6  23814089.669    97514764.258 7
  21135128.906   111065825.033 8  21135131.750    86544919.413 8
  22971872.008   120718003.182 6  22971878.124    94066099.768 7
  22728612.697   119439640.873 7  22728614.904    93069969.550 7
 92  8 14  6 59 15.0000000  0  6G26G 3G16G17G12G23                  -0.000000019
  21460235.712   112774255.830 8  21460234.311    87876161.051 8
  22264968.787   117003161.680 7  22264965.980    91171411.713 7
  23818938.320   125169285.697 6  23818938.346    97534618.779 7
  21129618.024   111036862.151 8  21129620.295    86522350.925 8
  22962591.365   120669217.075 7  22962594.682    94028084.626 7
  22723252.699   119411463.897 7  22723253.008    93048013.483 7
 92  8 14  6 59 30.0000000  0  6G26G 3G16G17G12G23                   0.000000017
  21466407.205   112806686.243 8  21466406.097    87901431.483 8
  22271037.047   117035073.605 7  22271038.857    91196278.129 7
  23823793.966   125194839.289 6  23823801.262    97554530.607 7
  21124135.505   111008048.319 8  21124137.448    86499898.582 8
  22953328.039   120620520.966 7  22953328.121    93990139.608 7
  22717898.012   119383322.827 7  22717897.938    93026085.364 7
 92  8 14  6 59 45.0000000  0  6G26G 3G16G17G12G23                   0.000000031
  21472590.827   112839200.397 8  21472592.593    87926767.153 8
  22277134.402   117067142.421 7  22277141.340    91221266.775 7
  23828677.460   125220471.224 6  23828678.603    97574503.501 7
  21118682.777   110979390.040 8  21118683.714    86477567.454 8
  22944072.675   120571922.702 7  22944080.178    93952270.826 7
  22712549.660   119355222.043 7  22712550.292    93004188.648 7
 92  8 14  6 59 60.0000000  0  6G26G 3G16G17G12G23                   0.000000023
  21478796.623   112871795.074 8  21478795.640    87952165.592 8
  22283274.163   117099366.081 7  22283273.537    91246376.099 7
  23833566.965   125246181.744 6  23833572.113    97594537.608 7
  21113257.480   110950886.914 8  21113259.748    86455357.221 8
  22934848.198   120523420.746 7  22934850.324    93914477.119 7
  22707212.972   119327157.562 7  22707209.552    92982320.212 7
 92  8 14  7  0 15.0000000  0  6G26G 3G16G17G12G23                  -0.000000008
  21485013.600   112904476.512 8  21485014.213    87977631.609 8
  22289435.283   117131746.986 7  22289434.679    91271607.944 7
  23838477.597   125271973.289 6  23838479.576    97614634.850 7
  21107863.765   110922538.753 8  21107865.510    86433267.717 8
  22925636.455   120475018.712 7  22925640.211    93876761.245 7
  22701874.515   119299130.778 7  22701876.720    92960481.156 7
 92  8 14  7  0 30.0000000  0  6G26G 3G16G17G12G23                  -0.000000062
  21491249.200   112937246.807 8  21491249.700    88003166.885 8
  22295626.240   117164284.688 7  22295627.122    91296961.964 7
  23843394.782   125297846.269 6  23843402.788    97634795.580 7
  21102498.272   110894343.893 8  21102500.203    86411297.681 8
  22916443.358   120426716.657 7  22916447.908    93839123.300 7
  22696546.640   119271143.605 7  22696551.188    92938672.993 7
 92  8 14  7  0 45.0000000  0  6G26G 3G16G17G12G23                  -0.000000048
  21497474.740   112969954.245 8  21497474.693    88028653.191 8
  22301821.216   117196827.504 7  22301820.053    91322319.979 7
  23848310.335   125323650.675 6  23848313.437    97654902.863 7
  21097133.969   110866149.295 8  21097134.710    86389327.886 8
  22907242.541   120378364.042 7  22907247.442    93801445.932 7
  22691206.258   119243050.711 7  22691205.273    92916782.364 7
 92  8 14  7  0 60.0000000  0  6G26G 3G16G17G12G23                   0.000000027
  21503685.112   113002599.967 8  21503686.222    88054091.365 8
  22308010.655   117229376.227 7  22308013.372    91347682.586 7
  23853207.292   125349388.360 6  23853211.385    97674958.145 7
  21091765.836   110837955.565 8  21091769.618    86367358.731 8
  22898033.273   120329962.010 7  22898036.840    93763730.054 7
  22685839.341   119214855.372 7  22685839.394    92894811.988 7
 92  8 14  7  1 15.0000000  0  6G26G 3G16G17G12G23                   0.000000064
  21509919.039   113035342.475 8  21509916.669    88079605.002 8
  22314235.836   117262087.770 7  22314238.163    91373172.065 7
  23858130.620   125375218.621 6  23858127.196    97695085.567 7
  21086435.204   110809918.903 8  21086434.665    86345511.990 8
  22888847.149   120281668.603 7  22888846.427    93726098.850 7
  22680486.233   119186714.596 7  22680484.872    92872884.115 7
 92  8 14  7  1 30.0000000  0  6G26G 3G16G17G12G23                  -0.000000035
  21516193.989   113068335.560 8  21516195.773    88105313.886 8
  22320524.315   117295114.953 7  22320523.020    91398907.504 7
  23863084.965   125401296.878 6  23863089.217    97715406.214 7
  21081157.492   110782192.338 8  21081158.473    86323906.864 8
  22879702.387   120233637.555 7  22879705.686    93688672.043 7
  22675165.454   119158782.717 7  22675169.367    92851119.009 7
 92  8 14  7  1 45.0000000  0  6G26G 3G16G17G12G23                   0.000000020
  21522431.736   113101117.141 8  21522434.869    88130857.940 8
  22326778.823   117327995.615 7  22326780.488    91424528.790 7
  23868010.291   125427158.644 6  23868010.536    97735558.194 7
  21075854.024   110754313.425 8  21075853.291    86302183.033 8
  22870527.317   120185407.234 7  22870528.013    93651090.009 7
  22669805.751   119130601.288 7  22669806.616    92829159.439 7
 92  8 14  7  2  0.0000000  0  6G26G 3G16G17G12G23                  -0.000000073
  21528722.229   113134154.907 8  21528721.494    88156601.618 8
  22333094.826   117361196.436 7  22333097.898    91450399.528 7
  23872973.482   125453270.386 6  23872979.909    97755904.945 7
  21070605.862   110726747.147 8  21070607.600    86280702.804 8
  22861398.735   120137445.212 7  22861401.871    93613716.982 7
  22664484.362   119102642.201 7  22664486.176    92807373.127 7
 92  8 14  7  2 15.0000000  0  6G26G 3G16G17G12G23                  -0.000000020
  21534967.813   113166987.673 8  21534969.117    88182185.591 8
  22339387.453   117394252.412 7  22339388.477    91476157.398 7
  23877896.998   125479170.639 6  23877908.059    97776086.895 7
  21065333.171   110699028.971 8  21065333.005    86259104.218 8
  22852230.783   120089287.299 7  22852237.731    93576191.359 7
  22659119.416   119074444.218 7  22659121.014    92785400.686 7
 92  8 14  7  2 30.0000000  0  6G26G 3G16G17G12G23                  -0.000000122
  21541269.266   113200087.032 8  21541267.461    88207977.255 8
  22345735.157   117427632.824 7  22345740.797    91502168.084 7
  23882884.492   125505328.098 6  23882885.895    97796469.303 7
  21060114.423   110671628.266 8  21060118.826    86237753.029 8
  22843124.334   120041403.586 7  22843124.784    93538879.365 7
  22653800.136   119046481.210 7  22653799.585    92763611.325 7
 92  8 14  7  2 45.0000000  0  6G26G 3G16G17G12G23                   0.000000009
  21547496.939   113232831.675 8  21547498.800    88233492.548 8
  22352036.190   117460719.971 7  22352037.064    91527950.247 7
  23887790.430   125531124.978 6  23887795.595    97816570.701 7
  21054848.867   110643929.582 8  21054847.940    86216169.633 8
  22833943.374   119993177.317 7  22833948.367    93501300.472 7
  22648406.314   119018139.487 7  22648405.851    92741526.885 7
 92  8 14  7  2 60.0000000  0  6G26G 3G16G17G12G23                  -0.000000013
  21553778.989   113265836.068 8  21553778.593    88259210.248 8
  22358394.526   117494129.257 7  22358394.632    91553983.424 7
  23892743.643   125557175.284 6  23892752.060    97836869.596 7
  21049636.069   110616553.144 8  21049638.376    86194837.337 8
  22824823.783   119945224.546 7  22824822.765    93463934.658 7
  22643057.252   118990031.976 7  22643057.655    92719624.917 7
 92  8 14  7  3 15.0000000  0  6G26G 3G16G17G12G23                   0.000000012
  21560054.663   113298800.957 8  21560051.592    88284897.131 8
  22364753.020   117527560.364 7  22364756.600    91580033.618 7
  23897696.854   125583176.585 6  23897699.684    97857130.290 7
  21044430.877   110589201.675 8  21044433.561    86173524.491 8
  22815690.693   119897245.833 7  22815692.720    93426548.651 7
  22637694.908   118961852.667 7  22637695.066    92697667.011 7
 92  8 14  7  3 30.0000000  0  6G26G 3G16G17G12G23                   0.000000083
  21566317.307   113331726.376 8  21566317.330    88310553.284 8
  22371120.670   117561013.594 7  22371122.285    91606101.037 7
  23902636.644   125609128.359 6  23902638.375    97877352.403 7
  21039232.353   110561877.249 8  21039233.651    86152232.728 8
  22806554.402   119849242.298 7  22806558.446    93389143.325 7
  22632314.592   118933602.917 7  22632319.320    92675654.229 7
 92  8 14  7  3 45.0000000  0  6G26G 3G16G17G12G23                   0.000000100
  21572605.994   113364769.646 8  21572605.494    88336301.263 8
  22377523.846   117594648.511 7  22377523.279    91632310.035 7
  23907592.332   125635187.672 6  23907597.523    97897658.286 7
  21034069.473   110534740.129 8  21034069.872    86131086.916 8
  22797446.773   119801374.383 7  22797448.997    93351843.653 7
  22626961.776   118905441.681 7  22626960.171    92653710.410 7
 92  8 14  7  3 60.0000000  0  6G26G 3G16G17G12G23                  -0.000000026
  21578941.004   113398077.349 8  21578943.729    88362255.274 8
  22383985.292   117628610.638 7  22383985.804    91658773.994 7
  23912603.781   125661499.015 6  23912603.905    97918160.586 7
  21028970.568   110507937.203 8  21028969.197    86110201.506 8
  22788388.976   119753788.339 7  22788393.669    93314763.600 7
  22621644.830   118877511.939 7  22621645.802    92631946.959 7
 92  8 14  7  4 15.0000000  0  6G26G 3G16G17G12G23                   0.000000001
  21585245.035   113431188.257 8  21585244.282    88388055.986 8
  22390416.506   117662436.895 7  22390423.207    91685132.087 7
  23917566.071   125687602.023 6  23917571.856    97938500.512 6
  21023842.605   110481007.573 8  21023844.903    86089217.378 8
  22779299.160   119706022.035 7  22779303.807    93277543.133 7
  22616279.758   118849348.294 7  22616286.683    92610001.264 7
 92  8 14  7  4 30.0000000  0  6G26G 3G16G17G12G23                  -0.000000012
  21591566.943   113464410.110 8  21591567.403    88413943.110 8
  22396889.716   117696436.845 7  22396892.688    91711625.530 7
  23922554.679   125713806.339 6  23922558.118    97958919.422 6
  21018753.952   110454262.524 8  21018755.489    86068377.077 8
  22770234.688   119658385.913 7  22770238.714    93240424.095 7
  22610936.425   118821256.889 7  22610940.337    92588111.867 7
 92  8 14  7  4 45.0000000  0  6G26G 3G16G17G12G23                   0.000000033
  21597879.057   113497586.493 8  21597880.163    88439794.808 8
  22403364.374   117730459.403 7  22403367.205    91738136.592 7
  23927526.383   125739958.817 6  23927534.756    97979297.924 6
  21013671.764   110427552.445 8  21013672.728    86047564.021 8
  22761169.602   119610729.564 7  22761170.991    93203289.284 7
  22605583.865   118793083.997 7  22605579.215    92566158.970 7
 92  8 14  7  5  0.0000000  0  6G26G 3G16G17G12G23                   0.000000044
  21604214.607   113530870.028 8  21604213.320    88465730.028 8
  22409872.390   117764657.258 7  22409874.343    91764784.237 7
  23932527.769   125766212.279 6  23932531.095    97999755.095 6
  21008626.974   110401032.894 8  21008626.224    86026899.433 8
  22752120.558   119563206.520 7  22752127.417    93166258.359 7
  22600230.898   118764977.966 7  22600231.060    92544258.171 7
 92  8 14  7  5 15.0000000  0  6G26G 3G16G17G12G23                   0.000000017
  21610564.602   113564266.482 8  21610568.446    88491753.206 8
  22416414.443   117799034.979 7  22416416.687    91791572.039 7
  23937541.108   125792573.551 6  23937547.462    98020296.279 6
  21003616.191   110374709.051 8  21003616.715    86006387.330 8
  22743108.180   119515822.151 7  22743110.471    93129335.473 7
  22594895.422   118736941.854 7  22594895.963    92522411.839 7
 92  8 14  7  5 30.0000000  0  6G26G 3G16G17G12G23                  -0.000000052
  21616947.433   113597774.483 8  21616945.535    88517863.318 8
  22422993.311   117833590.162 7  22422992.069    91818498.131 7
  23942578.184   125819044.566 6  23942584.963    98040923.007 6
  20998642.909   110348574.279 8  20998643.436    85986022.582 8
  22734114.305   119468575.021 7  22734120.137    93092519.560 7
  22589575.289   118708976.363 7  22589573.820    92500620.554 7
 92  8 14  7  5 45.0000000  0  6G26G 3G16G17G12G23                  -0.000000074
  21623316.916   113631242.343 8  21623313.271    88543942.135 8
  22429563.333   117868174.857 7  22429573.799    91845447.214 7
  23947609.699   125845480.357 6  23947615.271    98061522.276 6
  20993679.570   110322481.755 8  20993678.189    85965690.725 8
  22725123.687   119421318.001 7  22725126.695    93055695.917 7
  22584234.830   118680937.061 7  22584238.849    92478771.739 7
 92  8 14  7  6  0.0000000  0  6G26G 3G16G17G12G23                   0.000000049
  21629643.416   113664513.323 8  21629644.770    88569867.564 8
  22436129.133   117902633.373 7  22436130.540    91872297.973 7
  23952603.956   125871725.352 6  23952610.000    98081972.854 6
  20988692.098   110296277.413 8  20988691.668    85945271.756 8
  22716096.714   119373895.939 7  22716102.583    93018743.686 7
  22578860.549   118652670.025 7  22578859.322    92456745.475 7
 92  8 14  7  6 15.0000000  0  6G26G 3G16G17G12G23                  -0.000000075
  21636052.481   113698199.187 8  21636055.703    88596116.262 8
  22442778.077   117937577.809 7  22442780.242    91899527.392 7
  23957680.428   125898393.392 6  23957684.012    98102753.086 6
  20983799.489   110270577.582 8  20983800.910    85925245.921 8
  22707164.502   119326921.848 7  22707164.205    92982140.523 7
  22573550.491   118624791.482 7  22573554.457    92435021.941 7
 92  8 14  7  6 30.0000000  0  6G26G 3G16G17G12G23                  -0.000000060
  21642428.218   113731689.912 8  21642427.548    88622212.900 8
  22449401.370   117972400.450 7  22449407.248    91926661.871 7
  23962718.408   125924877.160 6  23962723.937    98123389.738 6
  20978890.720   110244774.825 8  20978891.050    85905139.865 8
  22698191.620   119279789.038 7  22698194.645    92945413.673 7
  22568206.786   118596696.121 7  22568208.574    92413129.444 7
 92  8 14  7  6 45.0000000  0  6G26G 3G16G17G12G23                  -0.000000004
  21648791.945   113765135.524 8  21648793.499    88648274.408 8
  22456037.930   118007251.806 7  22456038.992    91953818.756 7
  23967752.399   125951325.958 6  23967756.961    98143999.130 6
  20973987.879   110219020.222 8  20973990.111    85885071.339 8
  22689221.881   119232648.738 7  22689223.906    92908680.996 7
  22562844.766   118568535.517 7  22562850.034    92391186.116 7
 92  8 14  7  6 60.0000000  0  6G26G 3G16G17G12G23                  -0.000000005
  21655175.555   113798695.619 8  21655178.298    88674425.093 8
  22462699.246   118042288.258 7  22462705.951    91981119.837 7
  23972807.932   125977896.965 6  23972813.975    98164703.754 6
  20969127.261   110193472.503 8  20969128.543    85865164.029 8
  22680274.377   119185658.286 7  22680281.924    92872065.078 7
  22557504.857   118540468.105 7  22557508.249    92369315.403 7
 92  8 14  7  7 15.0000000  0  6G26G 3G16G17G12G23                   0.000000028
  21661556.559   113832224.020 8  21661558.782    88700551.105 8
  22469378.616   118077361.585 7  22469380.423    92008449.685 7
  23977855.010   126004443.538 6  23977865.848    98185389.333 6
  20964278.442   110167982.785 8  20964278.252    85845301.897 8
  22671339.301   119138670.144 7  22671340.140    92835450.967 7
  22552156.089   118512349.138 7  22552158.363    92347404.513 7
 92  8 14  7  7 30.0000000  0  6G26G 3G16G17G12G23                  -0.000000002
  21667960.417   113865868.522 8  21667962.818    88726767.563 8
  22476086.119   118112618.750 7  22476090.121    92035922.778 7
  23982937.246   126031114.866 6  23982940.490    98206172.140 6
  20959464.327   110142693.439 8  20959465.606    85825595.916 8
  22662424.045   119091832.161 7  22662427.177    92798953.871 7
  22546826.348   118484328.160 7  22546825.415    92325569.980 7
 92  8 14  7  7 45.0000000  0  6G26G 3G16G17G12G23                   0.000000000
  21674356.869   113899478.104 8  21674357.039    88752956.829 8
  22482800.381   118147908.432 7  22482805.272    92063421.198 7
  23988008.925   126057757.722 6  23988010.691    98226932.767 6
  20954661.341   110117454.577 8  20954663.054    85805929.270 8
  22653506.437   119044993.816 7  22653514.387    92762456.488 7
  22541484.329   118456254.663 7  22541483.452    92303694.535 7
 92  8 14  7  8  0.0000000  0  6G26G 3G16G17G12G23                  -0.000000059
  21680777.544   113933209.977 8  21680776.971    88779241.379 8
  22489549.914   118183385.469 7  22489556.809    92091065.612 7
  23993104.421   126084522.734 6  23993103.889    98247788.561 6
  20949902.548   110092422.952 8  20949899.447    85786424.096 8
  22644625.411   118998310.710 7  22644631.627    92726080.068 7
  22536157.987   118428283.549 7  22536160.477    92281898.842 7
 92  8 14  7  8 15.0000000  0  6G26G 3G16G17G12G23                   0.000000019
  21687160.748   113966764.942 8  21687161.526    88805388.065 8
  22496281.312   118218742.205 7  22496284.961    92118616.270 7
  23998158.065   126111099.814 6  23998162.065    98268497.946 6
  20945117.232   110067289.949 8  20945116.550    85766839.934 8
  22635712.536   118951476.231 7  22635718.838    92689585.689 7
  22530803.729   118400106.733 7  22530799.099    92259942.895 7
 92  8 14  7  8 30.0000000  0  6G26G 3G16G17G12G23                   0.000000037
  21693569.831   114000454.903 8  21693572.756    88831639.978 8
  22503047.330   118254287.871 7  22503048.824    92146314.161 7
  24003238.672   126137798.583 6  24003241.680    98289302.120 6
  20940375.395   110042360.428 8  20940372.864    85747414.331 8
  22626831.702   118904800.137 7  22626836.191    92653214.732 7
  22525453.352   118372031.308 7  22525456.034    92238065.940 7
 92  8 14  7  8 45.0000000  0  6G26G 3G16G17G12G23                  -0.000000005
  21700008.497   114034285.321 8  21700010.215    88858001.296 8
  22509850.935   118290026.058 7  22509849.078    92174162.062 7
  24008344.411   126164621.424 5  24008346.621    98310203.001 6
  20935668.694   110017636.547 8  20935667.820    85728148.961 8
  22617980.363   118858287.034 7  22617985.294    92616970.788 7
  22520130.572   118344058.913 7  22520133.061    92216269.256 7
 92  8 14  7  8 60.0000000  0  6G26G 3G16G17G12G23                  -0.000000009
  21706444.139   114068100.845 8  21706445.094    88884351.052 8
  22516656.707   118325801.628 7  22516657.669    92202039.106 7
  24013438.580   126191414.462 5  24013444.424    98331080.654 6
  20930972.108   109992962.820 8  20930972.808    85708922.674 8
  22609129.362   118811782.713 7  22609135.821    92580733.680 7
  22514802.529   118316034.859 7  22514800.504    92194432.326 7
 92  8 14  7  9 15.0000000  0  6G26G 3G16G17G12G23                   0.000000020
  21712876.729   114101900.337 8  21712877.405    88910688.288 8
  22523468.531   118361615.004 7  22523472.721    92229945.604 7
  24018528.949   126218180.530 5  24018539.284    98351937.251 6
  20926284.267   109968339.047 8  20926286.812    85689735.304 8
  22600281.208   118765288.348 7  22600288.005    92544504.351 7
  22509452.781   118287960.743 7  22509458.181    92172556.404 7
 92  8 14  7  9 30.0000000  0  6G26G 3G16G17G12G23                  -0.000000018
  21719334.179   114135839.465 8  21719336.039    88937134.316 8
  22530317.984   118397622.124 7  22530324.394    92258003.059 7
  24023651.871   126245076.669 5  24023656.708    98372895.247 6
  20921640.976   109943920.392 8  20921640.339    85670707.772 8
  22591470.457   118718960.537 7  22591471.876    92508404.775 7
  22504135.167   118259993.492 7  22504135.696    92150763.720 7
 92  8 14  7  9 45.0000000  0  6G26G 3G16G17G12G23                  -0.000000022
  21725792.296   114169763.096 8  21725791.489    88963568.303 8
  22537180.770   118433669.308 7  22537183.695    92286091.748 7
  24028763.991   126271948.040 5  24028770.149    98393833.934 6
  20917006.363   109919558.335 8  20917004.148    85651724.344 8
  22582654.928   118672646.620 7  22582659.126    92472316.036 7
  22498801.918   118231978.079 7  22498804.298    92128933.534 7
 92  8 14  7  9 60.0000000  0  6G26G 3G16G17G12G23                   0.000000011
  21732243.164   114203676.639 8  21732245.742    88989994.393 8
  22544052.077   118469760.272 7  22544052.055    92314214.536 7
  24033879.554   126298796.502 5  24033879.722    98414754.780 6
  20912381.544   109895263.747 8  20912381.041    85632793.495 8
  22573844.457   118626351.286 7  22573849.916    92436241.795 7
  22493462.618   118203919.868 7  22493465.490    92107070.008 7
 92  8 14  7 10 15.0000000  0  6G26G 3G16G17G12G23                  -0.000000018
  21738727.858   114237730.935 8  21738724.834    89016530.189 8
  22550955.367   118506046.304 7  22550957.299    92342489.355 7
  24039012.236   126325775.929 5  24039012.983    98435777.628 6
  20907801.084   109871188.269 8  20907799.871    85614033.370 8
  22565066.601   118580226.339 7  22565072.146    92400300.294 7
  22488149.296   118175969.171 7  22488146.645    92085290.226 7
 92  8 14  7 10 30.0000000  0  6G26G 3G16G17G12G23                  -0.000000019
  21745204.382   114271771.301 8  21745203.229    89043055.134 8
  22557873.369   118542377.652 7  22557870.911    92370799.441 7
  24044132.625   126352742.754 5  24044145.089    98456790.744 5
  20903231.127   109847179.982 8  20903231.002    85595325.614 8
  22556296.865   118534123.064 7  22556298.504    92364375.698 7
  22482816.738   118147976.393 7  22482819.550    92063477.664 7
 92  8 14  7 10 45.0000000  0  6G26G 3G16G17G12G23                  -0.000000089
  21751703.043   114305941.993 8  21751705.684    89069681.602 8
  22564818.907   118578904.697 7  22564822.013    92399262.044 7
  24049290.514   126379851.645 5  24049303.718    98477914.466 5
  20898704.340   109823391.552 8  20898704.213    85576789.170 8
  22547557.174   118488192.680 7  22547558.250    92328585.818 7
  22477512.799   118120092.005 7  22477513.574    92041749.578 7
 92  8 14  7 11  0.0000000  0  6G26G 3G16G17G12G23                  -0.000000036
  21758172.403   114339934.709 8  21758173.789    89096169.412 8
  22571750.617   118615319.082 7  22571751.431    92427636.851 7
  24054427.484   126406797.603 4  24054431.348    98498911.255 5
  20894160.952   109799516.887 8  20894161.255    85558185.517 8
  22538785.192   118442127.603 7  22538792.608    92292690.979 7
  22472171.819   118092008.963 7  22472169.059    92019866.683 7
 92  8 14  7 11 15.0000000  0  6G26G 3G16G17G12G23                   0.000000037
  21764639.685   114373912.503 8  21764640.272    89122645.578 8
  22578686.452   118651782.138 7  22578690.111    92456049.586 7
  24059555.344   126433744.693 5  24059559.445    98519908.953 5
  20889633.763   109775719.348 8  20889632.489    85539641.979 8
  22530031.200   118396090.062 7  22530031.470    92256817.585 7
  22466816.662   118063890.424 7  22466819.008    91997956.121 7
 92  8 14  7 11 30.0000000  0  6G26G 3G16G17G12G23                   0.000000034
  21771130.862   114408029.872 8  21771132.578    89149230.484 8
  22585666.964   118688446.979 7  22585667.189    92484619.555 7
  24064709.394   126460845.405 5  24064715.784    98541026.300 5
  20885149.909   109752152.536 8  20885148.114    85521278.213 8
  22521302.214   118350233.934 7  22521306.078    92221085.562 7
  22461490.224   118035888.802 7  22461490.231    91976136.669 7
 92  8 14  7 11 45.0000000  0  6G26G 3G16G17G12G23                   0.000000056
  21777623.477   114442133.792 8  21777621.848    89175804.960 8
  22592651.442   118725159.658 7  22592653.375    92513226.816 7
  24069861.459   126487945.689 5  24069874.977    98562143.334 5
  20880679.256   109728664.098 8  20880678.413    85502975.533 8
  22512584.522   118304406.150 7  22512584.859    92185375.627 7
  22456154.683   118007850.349 7  22456154.693    91954288.533 7
 92  8 14  7 12  0.0000000  0  6G26G 3G16G17G12G23                   0.000000099
  21784110.375   114476223.672 8  21784109.417    89202368.469 8
  22599644.233   118761919.023 7  22599648.438    92541870.430 7
  24075021.833   126515046.639 5  24075030.159    98583260.943 5
  20876224.329   109705251.297 8  20876222.860    85484731.787 8
  22503865.860   118258606.272 7  22503869.437    92149687.431 7
  22450811.386   117979774.131 7  22450811.719    91932410.946 7
 92  8 14  7 12 15.0000000  0  6G26G 3G16G17G12G23                  -0.000000037
  21790650.587   114510605.720 8  21790652.095    89229159.643 8
  22606708.396   118799032.450 7  22606710.639    92570789.964 7
  24080248.421   126542459.544 4  24080247.140    98604621.607 5
  20871839.456   109682216.638 8  20871839.509    85466782.700 8
  22495214.053   118213142.723 7  22495217.526    92114261.304 7
  22445520.629   117951969.016 7  22445521.071    91910744.627 7
 92  8 14  7 12 30.0000000  0  6G26G 3G16G17G12G23                   0.000000033
  21797133.186   114544664.004 8  21797132.919    89255698.534 8
  22613719.770   118835886.469 7  22613723.960    92599507.342 7
  24085393.352   126569573.337 4  24085406.957    98625749.195 5
  20867410.972   109658942.796 8  20867410.887    85448647.234 8
  22486511.920   118167402.705 7  22486514.470    92078619.744 7
  22440165.042   117923820.215 7  22440164.284    91888810.479 7
 92  8 14  7 12 45.0000000  0  6G26G 3G16G17G12G23                   0.000000018
  21803641.795   114578860.977 8  21803640.622    89282345.492 8
  22620773.839   118872942.851 7  22620775.058    92628382.407 7
  24090597.703   126596847.391 4  24090596.295    98647001.669 5
  20863026.193   109635894.628 8  20863024.720    85430687.610 8
  22477842.007   118121849.004 7  22477844.918    92043123.376 7
  22434832.188   117895790.881 7  22434830.235    91866969.441 7
 92  8 14  7 12 60.0000000  0  6G26G 3G16G17G12G23                   0.000000022
  21810145.324   114613046.254 8  21810145.372    89308983.356 8
  22627827.758   118910046.445 7  22627835.875    92657294.274 7
  24095800.184   126624124.611 5  24095786.719    98668256.585 5
  20858650.880   109612922.202 8  20858653.458    85412787.024 8
  22469177.783   118076327.199 7  22469182.410    92007651.855 7
  22429487.776   117867726.807 7  22429490.308    91845101.331 7
 92  8 14  7 13 15.0000000  0  6G26G 3G16G17G12G23                   0.000000045
  21816648.911   114647224.834 8  21816649.333    89335615.987 8
  22634906.539   118947200.691 7  22634905.592    92686245.582 7
  24100980.146   126651404.493 5  24100978.635    98689513.614 5
  20854297.770   109590029.456 8  20854296.866    85394948.508 8
  22460525.009   118030841.564 7  22460527.025    91972208.502 7
  22424142.580   117839631.610 7  22424143.726    91823208.974 7
 92  8 14  7 13 30.0000000  0  6G26G 3G16G17G12G23                  -0.000000109
  21823212.715   114681703.853 8  21823209.730    89362482.715 8
  22642043.830   118984715.406 7  22642044.887    92715477.802 7
  24106232.671   126678993.700 5  24106229.879    98711011.579 5
  20850014.825   109567527.427 8  20850014.869    85377414.449 8
  22451932.886   117985702.656 7  22451938.114    91937035.346 7
  22418850.192   117811814.923 7  22418850.630    91801533.629 7
 92  8 14  7 13 45.0000000  0  5G26G 3G17G12G23                     -0.000000055
  21829711.201   114715865.632 8  21829712.449    89389102.262 8
  22649137.672   119021972.799 7  22649134.729    92744509.520 7
  20845691.330   109544799.308 8  20845690.090    85359704.202 8
  22443295.064   117940293.595 7  22443296.570    91901651.669 7
  22413493.398   117783659.779 7  22413492.639    91779594.554 7
 92  8 14  7 14  0.0000000  0  5G26G 3G17G12G23                     -0.000000022
  21836211.956   114750020.329 8  21836211.370    89415716.260 8
  22656231.280   119059282.959 7  22656235.091    92773582.315 7
  20841380.177   109522157.046 8  20841381.171    85342060.898 8
  22434657.789   117894925.405 7  22434662.804    91866299.840 7
  22408125.677   117755476.217 7  22408128.997    91757633.334 7
 92  8 14  7 14 15.0000000  0  6G26G 3G16G17G12G23                   0.000000030
  21842739.236   114784320.415 8  21842738.210    89442443.577 8
  22663372.910   119096798.478 7  22663374.292    92802815.150 7
  24121829.623   126761086.23815  24121831.044    98774993.74115
  20837118.313   109499755.798 8  20837118.108    85324605.367 8
  22426065.108   117849751.561 7  22426067.242    91831099.451 7
  22402790.939   117727414.980 7  22402789.852    91735767.428 7
 92  8 14  7 14 30.0000000  0  6G26G 3G16G17G12G23                  -0.000000006
  21849286.851   114818767.363 8  21849293.725    89469285.316 8
  22670551.352   119134519.446 7  22670551.856    92832208.076 7
  24127070.329   126788664.330 5  24127079.213    98796483.118 5
  20832901.488   109477599.230 8  20832902.094    85307340.494 8
  22417504.248   117804772.939 7  22417507.851    91796051.175 7
  22397470.164   117699475.120 7  22397472.587    91713996.119 7
 92  8 14  7 14 45.0000000  0  6G26G 3G16G17G12G23                  -0.000000023
  21855849.362   114853210.592 8  21855847.314    89496124.167 8
  22677732.426   119172293.244 7  22677739.724    92861642.190 7
  24132312.625   126816235.782 4  24132327.830    98817967.329 5
  20828699.771   109455538.063 8  20828704.724    85290149.964 8
  22408954.305   117759837.687 7  22408956.958    91761036.697 7
  22392143.503   117671504.327 7  22392149.677    91692200.692 7
 92  8 14  7 15  0.0000000  0  6G26G 3G16G17G12G23                  -0.000000011
  21862403.261   114887652.566 8  21862401.884    89522962.033 8
  22684935.634   119210120.356 7  22684938.459    92891117.807 7
  24137564.517   126843801.662 5  24137571.962    98839447.171 5
  20824523.708   109433573.700 8  20824525.286    85273034.864 8
  22400412.104   117714947.116 7  22400414.322    91726057.029 7
  22386824.472   117643504.627 7  22386821.753    91670382.732 7
 92  8 14  7 15 15.0000000  0  6G26G 3G16G17G12G23                   0.000000025
  21868952.273   114922093.853 8  21868955.351    89549799.389 8
  22692147.604   119248001.516 7  22692146.998    92920635.570 7
  24142818.515   126871364.608 4  24142817.241    98860924.710 5
  20820361.713   109411705.270 8  20820363.620    85255994.538 8
  22391879.138   117670103.078 7  22391880.785    91691113.623 7
  22381487.850   117615477.491 7  22381488.370    91648543.423 7
 92  8 14  7 15 30.0000000  0  6G26G 3G16G17G12G23                  -0.000000113
  21875567.882   114956842.114 8  21875567.956    89576875.899 8
  22699424.541   119286247.080 7  22699424.637    92950437.285 7
  24148123.332   126899237.611 4  24148121.044    98882643.898 5
  20816277.819   109390241.265 8  20816279.150    85239269.319 8
  22383411.714   117625616.465 7  22383415.505    91656448.719 7
  22376209.531   117587735.735 7  22376209.045    91626926.468 7
 92  8 14  7 15 45.0000000  0  5G26G 3G17G12G23                     -0.000000048
  21882121.736   114991281.851 8  21882121.617    89603712.047 8
  22706654.819   119324241.445 7  22706654.719    92980043.261 7
  20812153.953   109368567.199 8  20812154.470    85222380.442 8
  22374897.988   117580872.534 7  22374901.514    91621583.345 7
  22370872.194   117559664.844 7  22370867.577    91605053.048 7
 92  8 14  7 15 60.0000000  0  5G26G 3G17G12G23                     -0.000000024
  21888674.029   115025720.380 8  21888675.530    89630547.224 8
  22713893.727   119362290.162 7  22713895.138    93009691.569 7
  20808050.650   109346989.197 8  20808048.554    85205566.402 8
  22366390.789   117536177.901 7  22366396.159    91586756.342 7
  22365519.480   117531570.139 7  22365521.332    91583161.070 7
 92  8 14  7 16 15.0000000  0  5G26G 3G17G12G23                     -0.000000030
  21895257.397   115060313.213 8  21895258.567    89657502.660 8
  22721175.699   119400549.185 7  22721174.602    93039503.755 7
  20803990.481   109325661.868 8  20803990.098    85188947.703 8
  22357929.223   117491689.073 7  22357929.486    91552089.731 7
  22360198.147   117503608.349 7  22360200.382    91561372.669 7
 92  8 14  7 16 30.0000000  0  5G26G 3G17G12G23                     -0.000000103
  21901871.788   115095063.076 8  21901870.996    89684580.450 8
  22728493.323   119439020.558 7  22728496.674    93069481.416 7
  20799981.781   109304587.007 8  20799979.439    85172525.726 8
  22349501.879   117447409.078 7  22349503.529    91517585.843 7
  22354907.191   117475785.183 7  22354906.048    91539692.257 7
 92  8 14  7 16 45.0000000  0  5G26G 3G17G12G23                      0.000000032
  21908419.529   115129507.688 8  21908425.581    89711420.382 8
  22735770.902   119477241.494 7  22735769.625    93099263.934 7
  20795928.858   109283299.751 8  20795928.852    85155938.249 8
  22341026.776   117402876.113 7  22341029.921    91482884.837 7
  22349550.416   117447642.144 7  22349550.366    91517762.632 7
 92  8 14  7 16 60.0000000  0  5G26G 3G17G12G23                     -0.000000026
  21915040.002   115164262.506 8  21915039.437    89738502.017 8
  22743110.053   119515828.994 7  22743112.081    93129332.067 6
  20791953.737   109262415.346 8  20791954.434    85139664.671 8
  22332622.401   117358707.825 7  22332624.483    91448467.973 7
  22344252.459   117419799.189 7  22344251.536    91496066.812 7
 92  8 14  7 17 15.0000000  0  5G26G 3G17G12G23                     -0.000000084
  21921651.198   115199019.573 8  21921653.482    89765585.426 8
  22750468.759   119554475.254 7  22750466.945    93159446.003 7
  20787993.492   109241626.122 8  20787998.620    85123465.273 8
  22324229.580   117314597.253 7  22324230.278    91414096.108 7
  22338949.037   117391949.522 7  22338952.167    91474365.781 7
 92  8 14  7 17 30.0000000  0  5G26G 3G17G12G23                     -0.000000042
  21928234.235   115233626.666 8  21928238.984    89792551.953 8
  22757797.392   119593028.482 7  22757803.859    93189487.441 7
  20784030.168   109220783.715 8  20784032.685    85107224.434 8
  22315813.719   117270393.605 7  22315819.338    91379651.713 7
  22333620.765   117363941.264 7  22333622.617    91452541.162 7
 92  8 14  7 17 45.0000000  0  5G26G 3G17G12G23                     -0.000000092
  21934853.114   115268394.112 8  21934854.757    89819643.438 7
  22765179.721   119631797.880 7  22765181.179    93219697.334 7
  20780115.648   109200198.772 8  20780115.254    85091184.208 8
  22307445.953   117226406.697 7  22307448.176    91345376.203 7
  22328322.475   117336082.560 7  22328321.036    91430833.076 7
 92  8 14  7 18  0.0000000  0  5G26G 3G17G12G23                      0.000000058
  21941414.190   115302862.801 8  21941415.875    89846502.121 8
  22772512.421   119670322.482 7  22772511.914    93249716.468 7
  20776158.534   109179411.999 8  20776159.660    85074986.714 9
  22299028.891   117182176.739 7  22299031.250    91310911.301 7
  22322961.307   117307910.430 7  22322960.305    91408880.778 7
 92  8 14  7 18 15.0000000  0  5G26G 3G17G12G23                      0.000000019
  21948032.638   115337644.979 8  21948033.232    89873605.089 7
  22779910.787   119709216.158 7  22779913.370    93280023.194 7
  20772281.729   109159038.250 8  20772282.664    85059111.063 9
  22290680.759   117138318.005 7  22290685.454    91276735.659 7
  22317655.523   117280040.347 7  22317656.804    91387163.829 7
 92  8 14  7 18 30.0000000  0  5G26G 3G17G12G23                     -0.000000011
  21954651.096   115372431.211 8  21954652.580    89900711.212 8
  22787323.138   119748170.322 7  22787326.822    93310377.038 7
  20768423.021   109138771.602 8  20768426.046    85043318.856 9
  22282350.108   117094523.143 7  22282352.061    91242609.807 7
  22312350.649   117252165.049 8  22312351.823    91365442.818 7
 92  8 14  7 18 45.0000000  0  5G26G 3G17G12G23                     -0.000000031
  21961273.966   115407222.627 8  21961274.135    89927821.374 8
  22794750.181   119787185.701 7  22794750.955    93340778.621 6
  20764589.966   109118613.760 8  20764589.892    85027611.445 9
  22274029.404   117050793.545 7  22274030.598    91208534.807 7
  22307044.183   117224283.381 7  22307046.853    91343716.852 7
 92  8 14  7 18 60.0000000  0  5G26G 3G17G12G23                     -0.000000037
  21967892.643   115442021.010 8  21967895.064    89954936.971 7
  22802181.388   119826262.952 7  22802186.609    93371228.385 7
  20760772.605   109098567.393 8  20760775.192    85011990.889 9
  22265717.596   117007130.700 7  22265721.589    91174511.803 7
  22301737.507   117196392.612 7  22301738.680    91321983.774 7
 92  8 14  7 19 15.0000000  0  5G26G 3G17G12G23                     -0.000000025
  21974517.612   115476828.454 8  21974518.939    89982059.633 8
  22809632.577   119865402.218 7  22809635.774    93401726.466 6
  20756982.389   109078635.672 8  20756982.310    84996459.669 9
  22257419.846   116963535.727 7  22257425.503    91140541.720 7
  22296432.407   117168489.120 8  22296429.068    91300240.798 7
 92  8 14  7 19 30.0000000  0  5G26G 3G17G12G23                      0.000000006
  21981146.355   115511649.734 8  21981145.688    90009193.064 8
  22817092.760   119904606.746 7  22817095.650    93432275.413 7
  20753213.256   109058824.749 8  20753212.414    84981022.576 9
  22249139.737   116920012.462 7  22249143.788    91106627.483 7
  22291118.089   117140573.192 8  22291117.085    91278488.118 7
 92  8 14  7 19 45.0000000  0  5G26G 3G17G12G23                      0.000000056
  21987774.738   115546482.123 8  21987772.598    90036335.150 8
  22824569.910   119943873.433 7  22824567.600    93462872.801 7
  20749463.812   109039131.284 8  20749464.871    84965677.014 9
  22240868.537   116876559.012 7  22240874.630    91072767.662 7
  22285799.555   117112643.106 7  22285802.167    91256724.417 7
 92  8 14  7 19 60.0000000  0  5G26G 3G17G12G23                     -0.000000080
  21994458.817   115581637.194 8  21994463.599    90063728.682 8
  22832110.275   119983513.319 7  22832110.564    93493760.976 7
  20745797.869   109019863.623 8  20745798.597    84950663.234 9
  22232674.473   116833486.916 7  22232678.531    91039205.008 7
  22280541.418   117085012.411 7  22280543.732    91235194.004 7
 92  8 14  7 20 15.0000000  0  5G26G 3G17G12G23                     -0.000000105
  22001123.284   115616649.208 8  22001126.884    90091010.720 8
  22839629.723   120023061.283 7  22839635.793    93524577.529 7
  20742124.088   109000556.777 8  20742124.137    84935618.936 9
  22224462.019   116790332.182 7  22224466.709    91005577.968 7
  22275251.558   117057217.010 7  22275254.689    91213535.258 7
 92  8 14  7 20 30.0000000  0  5G26G 3G17G12G23                     -0.000000026
  22007760.868   115651522.943 8  22007762.152    90118185.031 8
  22847138.873   120062521.130 7  22847145.961    93555325.413 7
  20738443.329   108981213.256 8  20738443.426    84920546.038 9
  22216239.994   116747099.147 7  22216238.758    90971889.883 7
  22269936.470   117029263.030 7  22269935.221    91191752.925 7
 92  8 14  7 20 45.0000000  0  5G26G 3G17G12G23                      0.000000052
  22014401.501   115686416.707 8  22014403.187    90145374.961 8
  22854662.089   120102046.902 7  22854666.972    93586124.695 7
  20734782.631   108961984.159 8  20734784.249    84905562.320 9
  22208020.984   116703942.959 7  22208026.900    90938261.700 7
  22264613.957   117001305.036 8  22264614.994    91169967.485 7
 92  8 14  7 21  0.0000000  0  5G26G 3G17G12G23                     -0.000000070
  22021104.704   115721637.276 8  22021104.696    90172819.522 8
  22862259.301   120141945.518 7  22862259.658    93617214.474 7
  20731203.267   108943175.475 8  20731205.563    84890906.199 9
  22199887.908   116661171.353 7  22199887.986    90904933.205 7
  22259350.182   116973652.713 7  22259353.177    91148420.221 7
 92  8 14  7 21 15.0000000  0  5G26G 3G17G12G23                      0.000000000
  22027749.750   115756567.229 8  22027751.637    90200037.633 8
  22869800.212   120181600.274 7  22869805.700    93648114.255 7
  20727587.165   108924172.728 8  20727589.214    84876098.855 9
  22191704.344   116618168.435 7  22191704.313    90871424.432 7
  22254032.782   116945692.587 8  22254032.788    91126633.117 7
 92  8 14  7 21 30.0000000  0  5G26G 3G17G12G23                      0.000000066
  22034400.730   115791514.367 8  22034401.357    90227269.124 8
  22877362.388   120221319.776 7  22877363.326    93679064.473 7
  20723995.609   108905285.977 8  20723994.937    84861381.892 9
  22183533.727   116575243.556 7  22183535.987    90837976.505 7
  22248708.174   116917739.584 7  22248713.016    91104851.543 7
 92  8 14  7 21 45.0000000  0  5G26G 3G17G12G23                     -0.000000072
  22041111.582   115826784.132 8  22041113.211    90254752.047 8
  22884991.485   120261412.950 7  22884993.531    93710305.885 7
  20720479.629   108886822.378 8  20720481.430    84846994.667 9
  22175441.295   116532706.535 7  22175440.979    90804830.800 7
  22243454.629   116890106.020 8  22243454.526    91083318.905 7
 92  8 14  7 21 60.0000000  0  5G26G 3G17G12G23                     -0.000000025
  22047765.689   115861763.698 7  22047770.319    90282008.790 8
  22892575.597   120301266.730 7  22892578.173    93741360.726 7
  20716929.433   108868169.972 8  20716932.236    84832460.311 9
  22167298.937   116489945.158 7  22167304.012    90771510.279 7
  22238142.056   116862181.257 8  22238140.618    91061559.341 7
 92  8 14  7 22 15.0000000  0  5G26G 3G17G12G23                      0.000000017
  22054431.936   115896758.062 8  22054429.276    90309277.104 8
  22900171.745   120341185.758 7  22900173.770    93772466.425 7
  20713402.848   108849634.643 8  20713405.324    84818017.195 9
  22159179.654   116447265.036 7  22159182.501    90738253.049 7
  22232827.186   116834267.431 8  22232828.553    91039808.320 7
 92  8 14  7 22 30.0000000  0  5G26G 3G17G12G23                     -0.000000046
  22061118.321   115931924.251 7  22061120.684    90336679.301 8
  22907807.675   120381328.842 7  22907812.981    93803746.720 7
  20709932.111   108831376.796 8  20709930.970    84803790.297 9
  22151100.272   116404825.596 7  22151105.819    90705183.386 7
  22227545.439   116806523.662 7  22227549.579    91018189.805 7
 92  8 14  7 22 45.0000000  0  5G26G 3G17G12G23                     -0.000000114
  22067815.812   115967108.804 8  22067817.536    90364095.792 8
  22915461.659   120421541.795 7  22915464.751    93835081.438 7
  20706480.524   108813243.583 8  20706480.328    84789660.497 9
  22143042.105   116362473.641 7  22143046.997    90672181.858 7
  22222274.082   116778796.495 8  22222273.026    90996584.204 7
 92  8 14  7 22 60.0000000  0  5G26G 3G17G12G23                      0.000000014
  22074454.899   116002000.443 7  22074455.475    90391284.042 7
  22923064.477   120461514.874 7  22923071.122    93866229.257 7
  20702996.942   108794929.235 8  20702995.224    84775389.578 9
  22134941.454   116319900.438 7  22134945.349    90639007.963 7
  22216935.332   116750775.172 7  22216940.746    90974749.410 7
 92  8 14  7 23 15.0000000  0  5G26G 3G17G12G23                      0.000000047
  22081128.641   116037061.193 8  22081128.036    90418604.063 8
  22930717.777   120501714.236 7  22930721.531    93897553.401 7
  20699564.767   108776903.033 8  20699564.953    84761343.190 9
  22126885.952   116277572.489 7  22126890.126    90606025.172 7
  22211641.330   116722925.005 8  22211640.791    90953047.978 7
 92  8 14  7 23 30.0000000  0  5G26G 3G17G12G23                     -0.000000113
  22087862.629   116072445.539 7  22087861.454    90446176.284 8
  22938437.817   120542293.323 7  22938443.950    93929173.418 7
  20696218.434   108759318.935 8  20696218.809    84747641.290 9
  22118909.039   116235644.526 8  22118912.480    90573354.046 7
  22206401.003   116695398.899 8  22206403.239    90931599.077 7
 92  8 14  7 23 45.0000000  0  5G26G 3G17G12G23                      0.000000021
  22094506.464   116107381.130 7  22094509.216    90473398.760 8
  22946089.661   120582479.036 7  22946090.540    93960486.923 7
  20692808.167   108741399.860 8  20692808.919    84733678.362 9
  22110861.822   116193344.115 7  22110862.741    90540392.709 7
  22201080.068   116667421.197 8  22201079.257    90909798.263 7
 92  8 14  7 24  0.0000000  0  5G26G 3G17G12G23                      0.000000060
  22101190.549   116142486.232 7  22101190.466    90500753.362 8
  22953779.543   120622887.637 7  22953780.760    93991974.090 7
  20689452.417   108723763.276 8  20689452.789    84719935.571 9
  22102856.229   116151288.439 7  22102860.061    90507622.075 7
  22195784.570   116639605.167 8  22195786.046    90888123.449 7
 92  8 14  7 24 15.0000000  0  5G26G 3G17G12G23                     -0.000000097
  22107931.825   116177919.876 7  22107933.010    90528363.951 8
  22961537.650   120663675.765 7  22961541.989    94023757.026 7
  20686179.266   108706566.752 8  20686180.155    84706535.682 9
  22094928.505   116109634.971 8  22094933.428    90475164.838 7
  22190552.703   116612107.523 8  22190553.416    90866696.702 7
 92  8 14  7 24 30.0000000  0  5G26G 3G17G12G23                     -0.000000061
  22114619.067   116213066.569 7  22114621.680    90555750.937 8
  22969259.449   120704230.091 7  22969259.206    94055357.740 7
  20682876.250   108689197.286 8  20682874.852    84693001.017 9
  22086963.612   116067771.173 8  22086966.527    90442543.709 7
  22185262.220   116584314.847 8  22185264.402    90845040.073 7
 92  8 14  7 24 45.0000000  0  5G26G 3G17G12G23                      0.000000074
  22121281.698   116248079.932 7  22121283.763    90583034.052 7
  22976961.645   120744703.403 7  22976961.504    94086895.361 7
  20679566.492   108671810.392 8  20679566.237    84679452.791 9
  22078987.914   116025850.599 8  22078989.803    90409878.359 7
  22179949.118   116556381.307 8  22179948.827    90823273.685 7
 92  8 14  7 25  0.0000000  0  5G26G 3G17G12G23                     -0.000000083
  22128039.043   116283579.020 8  22128038.521    90610695.657 7
  22984763.152   120785713.600 7  22984765.716    94118851.307 7
  20676370.175   108655026.633 8  20676372.390    84666374.525 9
  22071119.350   115984492.013 8  22071119.043    90377650.912 7
  22174723.299   116528922.440 8  22174723.333    90801877.157 7
 92  8 14  7 25 15.0000000  0  5G26G 3G17G12G23                     -0.000000043
  22134738.869   116318790.843 7  22134740.078    90638133.412 8
  22992523.039   120826489.082 7  22992524.782    94150624.383 7
  20673141.621   108638074.465 8  20673146.253    84653165.032 9
  22063203.674   115942924.858 7  22063209.324    90345260.935 7
  22169439.307   116501167.875 8  22169441.569    90780250.220 7
 92  8 14  7 25 30.0000000  0  5G26G 3G17G12G23                     -0.000000003
  22141442.293   116354024.576 7  22141444.574    90665588.203 8
  23000293.154   120867337.312 7  23000298.174    94182454.125 7
  20669947.471   108621260.093 8  20669946.829    84640062.926 9
  22055317.577   115901457.136 8  22055318.283    90312948.439 7
  22164164.315   116473423.606 8  22164162.257    90758631.318 7
 92  8 14  7 25 45.0000000  0  5G26G 3G17G12G23                     -0.000000061
  22148181.198   116389437.759 7  22148182.986    90693182.873 7
  23008114.498   120908411.753 7  23008113.639    94214460.147 7
  20666801.800   108604738.479 8  20666802.868    84627188.929 9
  22047472.971   115860243.453 8  22047475.095    90280833.897 7
  22158913.734   116445843.620 8  22158913.959    90737140.415 7
 92  8 14  7 25 60.0000000  0  5G26G 3G17G12G23                     -0.000000026
  22154889.500   116424726.126 7  22154899.102    90720680.245 7
  23015914.363   120949408.319 7  23015915.501    94246405.469 7
  20663654.931   108588206.573 8  20663657.193    84614306.916 9
  22039619.329   115818980.290 7  22039623.223    90248680.795 7
  22153641.184   116418123.180 8  22153639.178    90715540.068 7
 92  8 14  7 26 15.0000000  0  5G26G 3G17G12G23                      0.000000007
  22161618.535   116460041.440 7  22161620.109    90748198.647 7
  23023726.983   120990480.914 7  23023731.837    94278410.055 7
  20660537.312   108571819.376 8  20660538.565    84601537.658 9
  22031789.331   115777822.368 8  22031791.380    90216609.705 7
  22148364.586   116390418.469 8  22148366.900    90693951.973 7
 92  8 14  7 26 30.0000000  0  5G26G 3G17G12G23                      0.000000037
  22168343.291   116495383.275 7  22168343.716    90775737.696 7
  23031557.611   121031630.140 7  23031562.262    94310474.338 7
  20657448.800   108555576.132 8  20657447.577    84588880.577 9
  22023975.857   115736771.288 8  22023980.112    90184621.870 7
  22143097.855   116362729.612 8  22143098.371    90672376.227 7
 92  8 14  7 26 45.0000000  0  5G26G 3G17G12G23                     -0.000000036
  22175101.608   116530905.467 7  22175104.585    90803417.322 7
  23039434.423   121073009.066 7  23039436.401    94342717.622 7
  20654412.258   108539630.998 8  20654413.317    84576455.790 9
  22016215.096   115695981.213 8  22016217.532    90152837.399 7
  22137859.766   116335211.268 8  22137862.054    90650933.385 7
 92  8 14  7 27  0.0000000  0  5G26G 3G17G12G23                     -0.000000016
  22181837.175   116566300.115 7  22181839.456    90830997.493 7
  23047287.839   121114308.049 7  23047295.814    94374898.602 7
  20651375.807   108523673.341 8  20651376.675    84564021.249 9
  22008439.434   115655142.831 7  22008446.495    90121015.305 7
  22132595.577   116307553.767 8  22132598.763    90629382.088 7
 92  8 14  7 27 15.0000000  0  5G26G 3G17G12G23                     -0.000000009
  22188581.501   116601726.784 8  22188580.190    90858602.673 7
  23055165.222   121155684.974 7  23055169.086    94407140.334 7
  20648365.521   108507858.179 8  20648367.393    84551697.740 9
  22000695.694   115614415.207 8  22000696.290    90089279.510 7
  22127339.849   116279916.732 8  22127339.371    90607846.754 7
 92  8 14  7 27 30.0000000  0  5G26G 3G17G12G23                     -0.000000119
  22195357.311   116637341.905 7  22195358.248    90886354.685 7
  23063082.523   121197293.675 7  23063086.704    94439562.656 7
  20645414.210   108492336.934 8  20645413.550    84539603.247 9
  21992994.231   115573952.744 8  21992996.050    90057750.315 7
  22122110.001   116252457.695 7  22122113.841    90586450.085 7
 92  8 14  7 27 45.0000000  0  5G26G 3G17G12G23                     -0.000000055
  22202078.214   116672686.491 7  22202085.305    90913895.860 7
  23070959.554   121238672.752 7  23070960.867    94471806.041 7
  20642427.358   108476648.924 8  20642427.976    84527378.821 9
  21985258.660   115533295.043 8  21985259.148    90026068.993 7
  22116835.531   116224718.166 8  22116835.671    90564834.860 7
 92  8 14  7 28  0.0000000  0  5G26G 3G17G12G23                     -0.000000013
  22208813.237   116708065.273 8  22208817.899    90941463.707 7
  23078849.617   121280129.312 7  23078850.263    94504109.797 7
  20639469.412   108461100.811 8  20639469.510    84515263.400 9
  21977541.329   115492750.197 8  21977544.212    89994475.621 7
  22111559.926   116197007.674 8  22111562.543    90543242.281 7
 92  8 14  7 28 15.0000000  0  5G26G 3G17G12G23                      0.000000010
  22215550.002   116743476.215 7  22215553.928    90969056.621 7
  23086752.508   121321664.286 7  23086754.344    94536474.687 7
  20636536.120   108445693.261 8  20636537.550    84503257.514 9
  21969849.376   115452319.710 8  21969850.308    89962971.371 7
  22106291.508   116169327.951 8  22106295.022    90521673.664 7
 92  8 14  7 28 30.0000000  0  5G26G 3G17G12G23                      0.000000012
  22222301.196   116778922.977 7  22222300.437    90996677.445 7
  23094671.067   121363278.590 7  23094673.028    94568901.374 7
  20633633.713   108430431.009 8  20633633.237    84491364.838 9
  21962178.609   115412005.556 8  21962178.539    89931557.759 7
  22101036.111   116141680.656 8  22101033.918    90500130.324 7
 92  8 14  7 28 45.0000000  0  5G26G 3G17G12G23                     -0.000000100
  22229078.640   116814559.689 7  22229083.087    91024446.265 7
  23102632.826   121405124.917 7  23102636.110    94601508.865 7
  20630784.513   108415470.362 8  20630786.318    84479707.178 9
  21954555.339   115371961.005 7  21954558.070    89900354.211 7
  22095807.432   116114218.761 8  22095808.091    90478731.434 7
 92  8 14  7 28 60.0000000  0  5G26G 3G17G12G23                     -0.000000035
  22235809.279   116849927.434 7  22235810.889    91052005.489 7
  23110552.467   121446744.915 7  23110555.631    94633939.977 7
  20627911.504   108400355.594 8  20627910.314    84467929.424 9
  21946895.003   115331728.666 7  21946902.599    89869004.339 7
  22090529.619   116086486.669 8  22090531.338    90457122.013 8
 92  8 14  7 29 15.0000000  0  5G26G 3G17G12G23                     -0.000000081
  22242578.397   116885484.390 7  22242578.130    91079712.211 7
  23118514.523   121488595.801 7  23118520.315    94666551.029 7
  20625090.122   108385545.133 8  20625091.736    84456388.816 9
  21939293.718   115291766.643 8  21939297.597    89837865.124 7
  22085287.617   116058941.759 8  22085288.985    90435658.454 7
 92  8 14  7 29 30.0000000  0  5G26G 3G17G12G23                      0.000000052
  22249295.759   116920770.362 7  22249294.032    91107207.704 7
  23126432.847   121530217.872 7  23126440.475    94698983.759 7
  20622244.176   108370581.587 8  20622244.264    84444728.895 9
  21931657.133   115251616.117 8  21931656.962    89806579.004 7
  22079999.059   116031128.199 8  22079996.732    90413985.564 7
 92  8 14  7 29 45.0000000  0  5G26G 3G17G12G23                      0.000000076
  22256045.483   116956244.404 7  22256045.239    91134849.771 7
  23134406.596   121572074.209 7  23134406.194    94731599.047 7
  20619457.140   108355931.611 8  20619456.463    84433313.317 9
  21924066.264   115211740.830 8  21924068.948    89775507.353 7
  22074739.584   116003507.474 8  22074740.436    90392462.910 7
 92  8 14  7 30  0.0000000  0  5G26G 3G17G12G23                      0.000000094
  22262794.585   116991749.172 7  22262799.367    91162515.795 7
  23142384.261   121614009.120 7  23142385.884    94764275.542 7
  20616700.832   108341442.116 8  20616699.202    84422022.792 9
  21916502.135   115171986.064 8  21916504.353    89744529.601 7
  22069494.598   115975920.884 8  22069491.123    90370966.852 7
 92  8 14  7 30 15.0000000  0  5G26G 3G17G12G23                      0.000000005
  22269591.194   117027444.598 7  22269592.708    91190330.391 7
  23150409.010   121656181.461 7  23150410.520    94797137.086 6
  20613999.952   108327273.897 8  20614002.835    84410982.622 9
  21908989.800   115132511.480 8  21908992.352    89713770.214 7
  22064276.236   115948527.206 8  22064278.284    90349621.146 7
 92  8 14  7 30 30.0000000  0  5G26G 3G17G12G23                      0.000000004
  22276358.635   117063024.739 7  22276363.616    91218055.126 7
  23158420.383   121698280.508 7  23158422.412    94829941.447 7
  20611308.097   108313117.104 8  20611309.372    84399951.341 9
  21901471.031   115093007.081 8  21901475.158    89682987.562 7
  22059042.891   115921015.793 8  22059043.034    90328183.672 7
 92  8 14  7 30 45.0000000  0  5G26G 3G17G12G23                     -0.000000009
  22283140.488   117098645.615 7  22283141.788    91245811.606 7
  23166443.216   121740460.783 7  23166449.288    94862809.162 6
  20608647.684   108299125.538 8  20608647.107    84389048.812 9
  21893980.719   115053628.227 8  21893982.104    89652302.756 7
  22053813.886   115893542.191 8  22053815.229    90306775.684 7
 92  8 14  7 31  0.0000000  0  5G26G 3G17G12G23                     -0.000000037
  22289928.317   117134303.898 7  22289927.078    91273597.235 7
  23174489.009   121782720.711 7  23174490.588    94895738.939 6
  20606016.541   108285294.789 8  20606014.957    84378271.597 9
  21886509.630   115014374.391 8  21886512.838    89621715.362 7
  22048593.270   115866107.663 8  22048594.122    90285398.123 7
 92  8 14  7 31 15.0000000  0  5G26G 3G17G12G23                      0.000000015
  22296690.512   117169849.473 7  22296691.418    91301295.079 7
  23182515.300   121824908.153 7  23182519.070    94928612.233 6
  20603383.210   108271470.543 8  20603384.290    84367499.456 9
  21879035.963   114975094.002 8  21879037.297    89591107.270 7
  22043345.575   115838558.844 7  22043352.001    90263931.516 7
 92  8 14  7 31 30.0000000  0  5G26G 3G17G12G23                     -0.000000051
  22303492.514   117205594.235 7  22303494.379    91329148.066 8
  23190582.930   121867332.835 7  23190591.467    94961670.349 6
  20600815.635   108257963.841 8  20600814.047    84356974.738 9
  21871615.048   114936097.833 8  21871616.815    89560720.636 7
  22038147.235   115811205.383 8  22038146.808    90242617.119 8
 92  8 14  7 31 45.0000000  0  5G26G 3G17G12G23                      0.000000059
  22310246.210   117241073.148 7  22310245.538    91356793.934 7
  23198623.679   121909531.257 7  23198622.281    94994552.189 6
  20598217.574   108244309.942 8  20598215.796    84346335.336 9
  21864158.801   114896922.991 8  21864161.849    89530194.798 7
  22032889.649   115783581.580 8  22032890.175    90221092.085 8
 92  8 14  7 31 60.0000000  0  5G26G 3G17G12G23                      0.000000047
  22317031.575   117276751.482 7  22317033.916    91384595.206 7
  23206695.884   121951966.980 7  23206697.033    95027618.950 6
  20595678.696   108230972.044 8  20595677.921    84335942.161 9
  21856759.240   114858034.033 8  21856760.795    89499891.717 7
  22027670.550   115756149.033 8  22027670.176    90199716.064 8
 92  8 14  7 32 15.0000000  0  5G26G 3G17G12G23                      0.000000013
  22323830.484   117312475.990 7  22323832.784    91412432.435 7
  23214784.238   121994483.566 7  23214788.149    95060748.716 6
  20593167.361   108217792.894 8  20593169.763    84325672.673 9
  21849382.367   114819275.307 8  21849385.744    89469690.117 7
  22022455.809   115728754.379 8  22022457.147    90178369.580 8
 92  8 14  7 32 30.0000000  0  5G26G 3G17G12G23                     -0.000000052
  22330637.391   117348250.526 7  22330640.934    91440308.670 7
  23222889.813   122037083.653 7  23222894.415    95093943.520 6
  20590691.414   108204772.702 8  20590692.104    84315527.072 9
  21842030.906   114780650.114 8  21842036.349    89439592.573 7
  22017251.546   115701403.792 8  22017252.260    90157057.440 7
 92  8 14  7 32 45.0000000  0  5G26G 3G17G12G23                     -0.000000046
  22337424.440   117383918.707 7  22337428.596    91468102.013 7
  23230990.954   122079612.434 7  23230986.877    95127082.797 6
  20588215.695   108191756.711 8  20588215.238    84305384.722 9
  21834678.091   114742004.811 8  21834681.416    89409479.353 7
  22012028.434   115673942.156 8  22012026.480    90135658.743 8
 92  8 14  7 32 60.0000000  0  5G26G 3G17G12G23                     -0.000000067
  22344222.129   117419630.807 7  22344223.152    91495929.583 7
  23239092.412   122122223.885 7  23239096.528    95160286.465 6
  20585768.490   108178899.565 8  20585768.357    84295366.152 9
  21827351.051   114703493.960 8  21827352.802    89379470.904 7
  22006807.531   115646523.128 8  22006809.056    90114293.266 8
 92  8 14  7 33 15.0000000  0  5G26G 3G17G12G23                     -0.000000013
  22350999.471   117455231.979 7  22350999.289    91523670.731 8
  23247186.060   122164762.292 7  23247191.307    95193433.231 6
  20583321.689   108166048.537 8  20583323.372    84285352.350 9
  21820017.099   114664962.781 8  21820021.050    89349446.604 7
  22001569.034   115618989.640 8  22001569.609    90092838.606 8
 92  8 14  7 33 30.0000000  0  5G26G 3G17G12G23                     -0.000000081
  22357809.290   117491034.817 7  22357812.082    91551568.979 8
  23255328.251   122207539.793 7  23255331.337    95226766.293 6
  20580934.458   108153518.554 8  20580938.996    84275588.728 9
  21812739.953   114626724.121 8  21812744.479    89319650.262 7
  21996366.154   115591652.317 8  21996367.246    90071536.798 8
 92  8 14  7 33 45.0000000  0  5G26G 3G17G12G23                     -0.000000075
  22364604.133   117526728.961 7  22364603.709    91579382.558 7
  23263454.950   122250248.886 7  23263459.325    95260046.045 6
  20578559.442   108141001.758 8  20578557.126    84265835.367 9
  21805464.524   114588471.484 8  21805465.002    89289843.020 7
  21991146.224   115564206.404 8  21991144.702    90050150.353 8
 92  8 14  7 34  0.0000000  0  5G26G 3G17G12G23                      0.000000004
  22371374.011   117562313.911 7  22371375.788    91607111.086 7
  23271567.443   122292890.320 7  23271572.733    95293273.093 6
  20576175.049   108128498.691 8  20576177.872    84256092.722 9
  21798176.036   114550206.218 8  21798183.852    89260025.929 7
  21985902.124   115536654.469 8  21985901.747    90028681.328 8
 92  8 14  7 34 15.0000000  0  5G26G 3G17G12G23                     -0.000000037
  22378181.036   117598093.068 7  22378184.809    91634990.891 8
  23279728.848   122335765.793 6  23279731.898    95326682.509 6
  20573857.176   108116312.183 8  20573858.851    84246596.719 9
  21790956.040   114512230.884 8  21790957.143    89230434.766 7
  21980693.190   115509300.335 8  21980696.426    90007366.410 8
 92  8 14  7 34 30.0000000  0  5G26G 3G17G12G23                      0.000000093
  22384941.338   117633607.691 7  22384943.246    91662664.560 8
  23287852.770   122378417.293 7  23287848.680    95359917.378 6
  20571512.529   108103984.981 8  20571513.060    84236991.097 9
  21783695.475   114474088.359 8  21783698.863    89200713.323 7
  21975438.413   115481687.297 8  21975441.836    89985849.743 8
 92  8 14  7 34 45.0000000  0  5G26G 3G17G12G23                      0.000000104
  22391737.943   117669319.093 7  22391738.407    91690491.608 7
  23296002.245   122421307.072 6  23296010.564    95393337.928 6
  20569226.945   108091983.159 8  20569229.191    84227639.033 9
  21776493.322   114436241.786 8  21776496.658    89171222.493 7
  21970223.018   115454275.211 8  21970225.488    89964489.670 8
 92  8 14  7 34 60.0000000  0  5G26G 3G17G12G23                      0.000000002
  22398567.333   117705224.782 7  22398570.291    91718470.032 7
  23304217.922   122464435.746 6  23304217.672    95426944.664 6
  20567007.346   108080311.087 8  20567007.819    84218543.887 9
  21769349.841   114398692.541 8  21769351.278    89141963.360 7
  21965046.662   115427063.280 8  21965046.988    89943285.578 8
 92  8 14  7 35 15.0000000  0  5G26G 3G17G12G23                     -0.000000020
  22405380.976   117741017.713 7  22405382.669    91746360.579 8
  23312408.536   122507494.715 6  23312411.509    95460497.053 6
  20564790.770   108068661.900 8  20564791.296    84209466.597 9
  21762202.994   114361132.606 8  21762203.863    89112695.887 7
  21959847.863   115399744.406 8  21959848.622    89921998.136 8
 92  8 14  7 35 30.0000000  0  5G26G 3G17G12G23                      0.000000037
  22412169.006   117776700.054 7  22412172.053    91774164.976 8
  23320595.149   122550482.656 7  23320591.584    95493994.094 6
  20562578.117   108057033.332 8  20562578.451    84200405.365 9
  21755051.232   114323561.843 8  21755054.141    89083419.971 7
  21954631.233   115372319.828 8  21954630.142    89900628.335 8
 92  8 14  7 35 45.0000000  0  5G26G 3G17G12G23                     -0.000000127
  22419028.279   117812735.777 7  22419030.140    91802244.693 8
  23328843.425   122593863.638 6  23328846.697    95527797.402 6
  20560458.420   108045888.246 8  20560457.120    84191720.868 9
  21747991.001   114286445.083 8  21747991.056    89054497.820 7
  21949478.553   115345257.312 8  21949480.313    89879540.647 8
 92  8 14  7 35 60.0000000  0  5G26G 3G17G12G23                     -0.000000020
  22425806.965   117848355.013 7  22425807.519    91829999.926 7
  23337024.023   122636867.972 6  23337030.629    95561307.235 6
  20558281.767   108034456.856 8  20558282.284    84182813.280 9
  21740866.048   114249013.198 8  21740868.009    89025330.135 7
  21944254.812   115317787.368 8  21944252.716    89858135.509 8
 92  8 14  7 36 15.0000000  0  5G26G 3G17G12G23                     -0.000000033
  22432619.363   117884175.406 7  22432623.661    91857911.889 7
  23345251.212   122680111.144 6  23345259.273    95595003.158 6
  20556169.815   108023357.475 8  20556170.141    84174164.406 9
  21733799.352   114211882.462 8  21733802.512    88996397.105 7
  21939058.850   115290523.406 8  21939064.795    89836890.841 8
 92  8 14  7 36 30.0000000  0  5G26G 3G17G12G23                      0.000000030
  22439418.467   117919886.940 7  22439420.547    91885739.003 8
  23353465.372   122723283.844 6  23353474.507    95628644.170 6
  20554061.934   108012281.484 8  20554062.446    84165533.747 9
  21726732.084   114174744.719 8  21726734.946    88967458.604 7
  21933857.471   115263156.974 8  21933856.894    89815566.358 8
 92  8 14  7 36 45.0000000  0  5G26G 3G17G12G23                     -0.000000026
  22446254.503   117955798.549 7  22446253.557    91913722.035 8
  23361732.357   122766696.142 6  23361736.073    95662471.902 6
  20552015.010   108001540.829 8  20552018.565    84157164.399 9
  21719721.841   114137910.640 8  21719726.148    88938756.745 7
  21928686.352   115235998.557 8  21928689.060    89794403.941 8
 92  8 14  7 37  0.0000000  0  5G26G 3G17G12G23                     -0.000000105
  22453088.462   117991754.246 7  22453094.470    91941739.429 7
  23370013.735   122810193.081 6  23370013.254    95696365.572 6
  20550007.877   107990980.274 8  20550009.201    84148935.386 9
  21712743.106   114101226.143 8  21712744.833    88910171.429 7
  21923528.364   115208893.150 8  21923530.829    89773282.847 8
 92  8 14  7 37 15.0000000  0  5G26G 3G17G12G23                     -0.000000013
  22459885.859   118027447.808 7  22459887.942    91969552.564 8
  23378243.592   122853466.269 6  23378247.366    95730084.885 6
  20547972.603   107980288.838 8  20547974.442    84140604.391 9
  21705728.628   114064383.814 8  21705733.733    88881463.146 7
  21918324.133   115181536.733 8  21918324.589    89751966.163 8
 92  8 14  7 37 30.0000000  0  5G26G 3G17G12G23                     -0.000000048
  22466719.757   118063345.188 7  22466719.712    91997524.517 8
  23386530.703   122896979.330 6  23386528.842    95763991.146 6
  20546001.340   107969926.780 8  20546002.605    84132530.048 9
  21698779.282   114027847.751 8  21698781.886    88852993.494 7
  21913156.757   115154394.986 8  21913160.177    89730816.760 8
 92  8 14  7 37 45.0000000  0  5G26G 3G17G12G23                     -0.000000112
  22473556.370   118099287.830 7  22473559.357    92025531.722 8
  23394819.627   122940576.923 6  23394823.951    95797963.229 6
  20544064.664   107959738.479 8  20544064.319    84124591.091 9
  21691856.755   113991463.626 8  21691857.976    88824642.240 7
  21908006.468   115127314.035 8  21908006.353    89709714.714 8
 92  8 14  7 38  0.0000000  0  5G26G 3G17G12G23                     -0.000000005
  22480349.736   118134963.210 7  22480347.664    92053330.704 7
  23403078.490   122983949.539 7  23403077.233    95831760.040 6
  20542100.183   107949418.059 8  20542100.163    84116549.198 9
  21684901.531   113954922.677 8  21684904.956    88796168.785 7
  21902803.256   115099983.969 8  21902805.858    89688418.556 8
 92  8 14  7 38 15.0000000  0  5G26G 3G17G12G23                     -0.000000019
  22487169.869   118170836.248 7  22487174.058    92081283.647 7
  23411372.609   123027561.430 6  23411377.018    95865743.273 6
  20540199.897   107939431.991 8  20540199.873    84108767.831 9
  21678007.240   113918689.936 8  21678009.847    88767935.469 7
  21897646.060   115072866.722 8  21897645.616    89667288.226 8
 92  8 14  7 38 30.0000000  0  5G26G 3G17G12G23                      0.000000040
  22493976.348   118206600.539 7  22493979.767    92109151.886 7
  23419658.159   123071105.287 6  23419663.379    95899673.534 6
  20538303.653   107929473.161 8  20538304.768    84101007.693 9
  21671107.976   113882459.056 8  21671115.590    88739703.639 7
  21892469.324   115045656.792 8  21892467.987    89646085.699 8
 92  8 14  7 38 45.0000000  0  5G26G 3G17G12G23                      0.000000071
  22500796.415   118242411.230 7  22500793.818    92137056.287 7
  23427957.672   123114734.521 6  23427965.005    95933670.305 6
  20536442.844   107919694.542 8  20536443.957    84093387.981 9
  21664247.121   113846384.023 8  21664250.254    88711593.234 7
  21887300.787   115018509.945 8  21887301.868    89624932.306 8
 92  8 14  7 38 60.0000000  0  5G26G 3G17G12G23                      0.000000072
  22507617.714   118278274.401 7  22507619.077    92165001.583 7
  23436285.883   123158451.569 6  23436285.535    95967735.484 6
  20534619.837   107910099.575 8  20534618.092    84085911.368 9
  21657411.810   113810468.219 8  21657416.195    88683606.908 7
  21882145.068   114991428.460 8  21882148.433    89603829.852 7
 92  8 14  7 39 15.0000000  0  5G26G 3G17G12G23                     -0.000000057
  22514479.433   118314345.978 7  22514483.998    92193109.286 7
  23444641.860   123202410.525 6  23444650.150    96001989.184 6
  20532856.293   107900841.092 8  20532856.260    84078696.963 9
  21650637.409   113774866.503 8  21650640.925    88655865.308 7
  21877039.844   114964567.327 8  21877037.177    89582899.112 7
 92  8 14  7 39 30.0000000  0  5G26G 3G17G12G23                      0.000000075
  22521267.048   118350010.133 7  22521270.640    92220899.451 7
  23452932.777   123245991.583 6  23452943.089    96035948.382 6
  20531039.342   107891301.947 8  20531040.771    84071263.838 9
  21643802.906   113738959.948 8  21643807.647    88627886.178 7
  21871850.269   114937307.927 8  21871849.398    89561658.027 8
 92  8 14  7 39 45.0000000  0  5G26G 3G17G12G23                      0.000000081
  22528095.761   118385883.261 7  22528096.334    92248852.526 7
  23461274.873   123289811.593 6  23461281.747    96070093.794 6
  20529288.232   107882102.803 8  20529290.229    84064095.659 9
  21637032.301   113703366.174 8  21637035.112    88600150.776 7
  21866704.153   114910265.905 8  21866703.957    89540586.304 7
 92  8 14  7 40  0.0000000  0  5G26G 3G17G12G23                     -0.000000039
  22534962.629   118421966.897 7  22534962.816    92276969.621 7
  23469664.980   123333871.905 6  23469666.382    96104426.474 6
  20527604.835   107873250.495 8  20527605.936    84057197.761 9
  21630318.382   113668087.293 8  21630321.037    88572660.763 7
  21861599.919   114883438.975 8  21861599.213    89519682.231 7
 92  8 14  7 40 15.0000000  0  5G26G 3G17G12G23                      0.000000009
  22541778.258   118457800.270 6  22541782.150    92304891.654 7
  23478011.133   123377708.237 7  23478008.391    96138584.607 6
  20525900.511   107864281.212 8  20525899.134    84050208.694 9
  21623578.264   113632659.734 8  21623579.397    88545054.873 7
  21856442.083   114856362.361 8  21856445.971    89498583.569 7
 92  8 14  7 40 30.0000000  0  5G26G 3G17G12G23                      0.000000022
  22548611.439   118493696.879 7  22548613.522    92332862.980 7
  23486364.272   123421630.278 6  23486367.201    96172809.534 6
  20524224.853   107855501.569 8  20524228.663    84043367.395 9
  21616865.570   113597394.292 8  21616868.607    88517575.312 7
  21851304.219   114829347.704 8  21851305.496    89477533.183 7
 92  8 14  7 40 45.0000000  0  5G26G 3G17G12G23                     -0.000000001
  22555459.774   118529659.123 7  22555455.929    92360885.494 7
  23494739.445   123465640.111 6  23494740.764    96207102.876 6
  20522591.831   107846912.979 8  20522594.062    84036674.978 9
  21610189.537   113562293.497 8  21610189.640    88490224.057 7
  21846177.914   114802399.789 8  21846177.727    89456534.824 7
 92  8 14  7 41  0.0000000  0  5G26G 3G17G12G23                      0.000000038
  22562277.912   118565533.682 6  22562281.646    92388839.664 7
  23503101.212   123509582.492 6  23503103.196    96241343.638 6
  20520965.956   107838361.948 8  20520967.098    84030011.832 9
  21603504.845   113527203.207 8  21603511.938    88462880.985 7
  21841031.244   114775362.855 8  21841032.283    89435467.093 8
 92  8 14  7 41 15.0000000  0  5G26G 3G17G12G23                      0.000000041
  22569119.159   118601473.675 7  22569121.763    92416844.801 7
  23511478.152   123553612.606 6  23511481.593    96275652.769 6
  20519375.554   107830003.328 8  20519376.504    84023498.615 9
  21596865.466   113492279.035 8  21596866.090    88435667.347 7
  21835899.040   114748391.943 8  21835900.129    89414450.778 7
 92  8 14  7 41 30.0000000  0  5G26G 3G17G12G23                      0.000000012
  22575970.398   118637474.178 7  22575973.642    92444897.099 7
  23519871.822   123597727.640 6  23519877.125    96310028.072 6
  20517819.352   107821835.433 8  20517822.200    84017133.999 9
  21590249.006   113457519.301 8  21590252.023    88408581.851 7
  21830778.613   114721484.918 8  21830779.894    89393484.271 7
 92  8 14  7 41 45.0000000  0  5G26G 3G17G12G23                      0.000000049
  22582803.059   118673379.053 7  22582805.133    92472874.914 7
  23528256.061   123641773.113 6  23528258.691    96344349.181 6
  20516272.843   107813705.472 8  20516275.122    84010798.974 9
  21583635.707   113422770.183 8  21583639.494    88381504.647 7
  21825638.948   114694486.795 8  21825641.836    89372446.786 7
 92  8 14  7 41 60.0000000  0  5G26G 3G17G12G23                     -0.000000044
  22589676.703   118709495.297 7  22589678.057    92501017.386 7
  23536684.381   123686060.234 6  23536685.991    96378858.568 6
  20514795.361   107805922.253 8  20514794.019    84004734.102 9
  21577087.415   113388343.675 8  21577087.367    88354678.785 7
  21820546.060   114667708.489 8  21820546.825    89351580.566 7
 92  8 14  7 42 15.0000000  0  5G26G 3G17G12G23                     -0.000000076
  22596527.639   118745516.210 7  22596533.573    92529085.580 7
  23545097.962   123730280.900 6  23545100.648    96413316.181 6
  20513318.386   107798172.698 8  20513319.326    83998695.482 9
  21570538.240   113353932.530 8  21570539.395    88327864.932 7
  21815431.827   114640843.012 8  21815434.497    89330646.436 7
 92  8 14  7 42 30.0000000  0  5G26G 3G17G12G23                      0.000000047
  22603334.838   118781290.282 7  22603339.436    92556961.452 7
  23553474.035   123774281.464 6  23553474.401    96447602.300 6
  20511821.444   107790300.211 8  20511820.996    83992561.073 9
  21563961.171   113319383.797 8  21563964.986    88300943.829 7
  21810273.363   114613740.102 8  21810276.739    89309527.279 7
 92  8 14  7 42 45.0000000  0  5G26G 3G17G12G23                     -0.000000064
  22610215.980   118817430.926 7  22610216.763    92585122.955 7
  23561921.977   123818677.698 6  23561922.949    96482196.692 6
  20510415.266   107782921.699 8  20510417.152    83986811.567 9
  21557477.733   113285314.101 8  21557481.498    88274396.027 7
  21805190.364   114587015.763 8  21805191.023    89288703.124 7
 92  8 14  7 43  0.0000000  0  5G26G 3G17G12G23                     -0.000000016
  22617042.388   118853321.944 7  22617047.564    92613089.944 7
  23570325.827   123862855.226 6  23570330.129    96516620.689 6
  20508991.074   107775426.519 8  20508990.867    83980971.167 9
  21550967.371   113251109.915 8  21550972.663    88247743.436 7
  21800056.536   114560054.316 8  21800060.675    89267694.206 7
 92  8 14  7 43 15.0000000  0  5G26G 3G17G12G23                     -0.000000100
  22623912.669   118889421.515 7  22623918.045    92641219.414 7
  23578773.827   123907274.768 6  23578782.141    96551233.263 6
  20507630.737   107768275.897 8  20507630.145    83975399.236 9
  21544523.978   113217232.657 8  21544526.035    88221345.571 8
  21794971.495   114533316.243 8  21794972.586    89246859.330 7
 92  8 14  7 43 30.0000000  0  5G26G 3G17G12G23                     -0.000000021
  22630733.832   118925264.968 7  22630738.084    92669149.333 7
  23587186.801   123951472.245 6  23587192.875    96585672.813 6
  20506246.688   107761006.671 8  20506246.853    83969734.888 9
  21538051.022   113183219.046 8  21538053.214    88194841.452 8
  21789838.569   114506339.535 8  21789839.087    89225838.513 7
 92  8 14  7 43 45.0000000  0  5G26G 3G17G12G23                     -0.000000073
  22637594.319   118961315.068 7  22637597.695    92697240.294 7
  23595640.991   123995909.310 6  23595648.711    96620299.048 6
  20504929.781   107754080.281 8  20504928.562    83964337.706 9
  21531642.787   113149531.542 8  21531642.700    88168591.471 8
  21784747.962   114479588.216 8  21784748.242    89204993.353 7
 92  8 14  7 44  0.0000000  0  5G26G 3G17G12G23                      0.000000037
  22644403.841   118997109.349 7  22644409.106    92725131.881 7
  23604050.847   124040123.403 6  23604062.111    96654751.517 6
  20503587.985   107747034.095 8  20503587.715    83958847.163 9
  21525203.588   113115708.322 8  21525206.846    88142235.723 8
  21779611.544   114452601.153 8  21779613.019    89183964.472 7
 92  8 14  7 44 15.0000000  0  5G26G 3G17G12G23                     -0.000000086
  22651288.800   119033271.051 7  22651290.443    92753309.807 7
  23612547.472   124084734.466 6  23612552.283    96689513.352 6
  20502340.791   107740490.047 8  20502342.664    83953747.888 9
  21518859.537   113082370.111 8  21518862.551    88116257.895 8
  21774552.866   114425999.624 8  21774550.918    89163236.014 7
 92  8 14  7 44 30.0000000  0  5G26G 3G17G12G23                     -0.000000051
  22658123.007   119069183.053 7  22658125.244    92781293.175 7
  23620996.650   124129122.198 6  23620998.486    96724101.142 6
  20501075.219   107733831.422 8  20501075.569    83948559.345 9
  21512491.251   113048897.542 8  21512493.181    88090175.392 8
  21769441.964   114399164.650 8  21769443.903    89142325.642 7
 92  8 14  7 44 45.0000000  0  5G26G 3G17G12G23                     -0.000000050
  22664965.901   119105152.701 7  22664969.775    92809321.384 7
  23629457.752   124173595.588 6  23629461.480    96758755.685 6
  20499844.461   107727369.741 8  20499845.950    83943524.260 9
  21506154.026   113015600.198 8  21506156.663    88064229.407 8
  21764347.117   114372407.051 8  21764352.347    89121475.572 7
 92  8 14  7 44 60.0000000  0  5G26G 3G17G12G23                     -0.000000084
  22671824.175   119141182.178 7  22671825.459    92837396.267 7
  23637938.268   124218157.003 6  23637941.708    96793478.803 6
  20498656.024   107721109.466 8  20498654.658    83938646.118 9
  21499851.151   112982481.368 8  21499854.363    88038422.541 8
  21759276.253   114345728.478 8  21759275.824    89100687.060 7
 92  8 14  7 45 15.0000000  0  5G26G 3G17G12G23                     -0.000000055
  22678663.138   119177118.169 7  22678663.605    92865398.331 7
  23646406.303   124262650.828 6  23646408.102    96828149.269 6
  20497470.779   107714894.959 8  20497472.077    83933803.645 9
  21493552.145   112949385.866 8  21493556.745    88012633.848 8
  21754184.096   114318974.012 8  21754184.868    89079839.445 7
 92  8 14  7 45 30.0000000  0  5G26G 3G17G12G23                     -0.000000063
  22685512.302   119213114.772 7  22685514.252    92893447.586 7
  23654889.421   124307230.911 6  23654891.878    96862886.916 6
  20496325.289   107708880.371 8  20496327.533    83929116.931 9
  21487289.380   112916468.814 8  21487292.837    87986984.194 8
  21749109.728   114292299.028 8  21749108.789    89059053.748 7
 92  8 14  7 45 45.0000000  0  5G26G 3G17G12G23                     -0.000000009
  22692347.290   119249018.874 7  22692347.778    92921424.733 7
  23663356.680   124351743.659 6  23663362.364    96897572.141 6
  20495190.432   107702912.654 8  20495192.159    83924466.765 9
  21481030.483   112883577.087 8  21481033.511    87961354.301 8
  21744019.013   114265551.144 8  21744018.346    89038211.239 7
 92  8 14  7 45 60.0000000  0  5G26G 3G17G12G23                      0.000000009
  22699188.112   119284982.636 7  22699190.714    92949448.410 7
  23671843.934   124396341.481 6  23671848.788    96932323.626 6
  20494093.197   107697145.647 8  20494094.485    83919972.975 9
  21474805.960   112850863.998 8  21474808.416    87935863.579 8
  21738940.676   114238881.301 8  21738943.732    89017429.541 8
 92  8 14  7 46 15.0000000  0  5G26G 3G17G12G23                     -0.000000008
  22706044.698   119321010.238 7  22706045.064    92977521.827 7
  23680349.946   124441027.875 6  23680352.559    96967144.145 6
  20493034.436   107691584.819 8  20493036.293    83915639.855 9
  21468615.281   112818333.762 8  21468618.364    87910515.347 8
  21733879.913   114212291.813 8  21733883.678    88996710.467 8
 92  8 14  7 46 30.0000000  0  5G26G 3G17G12G23                      0.000000036
  22712882.153   119356946.307 7  22712885.409    93005523.898 7
  23688840.670   124485646.930 6  23688843.511    97001912.176 6
  20491985.926   107686075.863 8  20491987.970    83911347.146 9
  21462431.605   112785831.328 8  21462433.601    87885188.780 8
  21728804.081   114185627.133 8  21728809.314    88975932.793 8
 92  8 14  7 46 45.0000000  0  5G26G 3G17G12G23                     -0.000000052
  22719759.047   119393093.630 7  22719764.498    93033690.617 7
  23697371.797   124530504.304 6  23697379.332    97036865.934 6
  20491005.919   107680921.892 8  20491007.200    83907331.057 9
  21456310.157   112753662.899 8  21456311.909    87860122.471 8
  21723777.874   114159193.238 8  21723779.599    88955334.951 8
 92  8 14  7 47  0.0000000  0  5G26G 3G17G12G23                     -0.000000077
  22726616.373   119429146.121 7  22726625.781    93061783.422 7
  23705896.437   124575294.590 6  23705902.618    97071767.367 6
  20490037.094   107675818.679 8  20490036.334    83903354.522 9
  21450192.045   112721524.002 8  21450195.593    87835079.181 8
  21718733.817   114132683.539 8  21718734.973    88934678.053 8
 92  8 14  7 47 15.0000000  0  5G26G 3G17G12G23                     -0.000000041
  22733465.477   119465105.407 7  22733466.638    93089803.589 7
  23714410.144   124620019.421 6  23714414.200    97106617.874 6
  20489074.587   107670769.671 8  20489075.780    83899420.215 9
  21444085.526   112689417.028 8  21444085.842    87810060.771 8
  21713674.773   114106100.085 8  21713676.066    88913963.675 8
 92  8 14  7 47 30.0000000  0  5G26G 3G17G12G23                     -0.000000039
  22740315.648   119501121.299 7  22740319.984    93117867.894 7
  23722933.440   124664829.645 6  23722941.046    97141534.881 6
  20488151.054   107665924.472 8  20488153.522    83895644.724 9
  21438008.432   112657493.684 8  21438011.029    87785185.429 8
  21708632.164   114079595.997 8  21708632.019    88893311.144 8
 92  8 14  7 47 45.0000000  0  5G26G 3G17G12G23                     -0.000000075
  22747179.655   119537197.896 7  22747185.615    93145979.506 7
  23731481.855   124709728.869 6  23731485.806    97176521.245 6
  20487269.936   107661286.166 8  20487270.879    83892030.449 9
  21431970.859   112625758.027 8  21431972.427    87760456.363 8
  21703601.353   114053174.906 8  21703604.740    88872723.276 8
 92  8 14  7 47 60.0000000  0  5G26G 3G17G12G23                      0.000000046
  22754003.185   119573027.790 7  22754004.287    93173898.830 7
  23739986.553   124754406.361 6  23739986.169    97211334.812 6
  20486366.824   107656544.284 8  20486368.281    83888335.457 9
  21425906.444   112593900.309 8  21425910.104    87735632.163 8
  21698534.013   114026525.857 8  21698533.107    88851957.787 8
 92  8 14  7 48 15.0000000  0  5G26G 3G17G12G23                     -0.000000069
  22760891.062   119609232.829 7  22760894.840    93202110.492 7
  23748563.450   124799482.256 6  23748564.796    97246458.855 6
  20485561.672   107652319.182 8  20485564.759    83885043.170 9
  21419937.354   112562541.530 8  21419942.730    87711196.766 8
  21693532.561   114000268.049 8  21693537.147    88831497.167 8
 92  8 14  7 48 30.0000000  0  5G26G 3G17G12G23                      0.000000068
  22767708.011   119645041.135 7  22767708.185    93230013.001 7
  23757068.831   124844184.338 6  23757070.815    97281291.583 6
  20484711.903   107647837.614 8  20484711.695    83881551.016 9
  21413919.422   112530910.082 8  21413923.223    87686548.889 8
  21688464.775   113973629.650 8  21688467.541    88810739.976 8
 92  8 14  7 48 45.0000000  0  5G26G 3G17G12G23                     -0.000000034
  22774586.902   119681222.955 7  22774592.375    93258206.608 7
  23765646.335   124889282.422 6  23765653.417    97316432.903 6
  20483956.513   107643868.013 8  20483956.302    83878457.809 9
  21407994.728   112499776.604 8  21407998.723    87662289.053 8
  21683471.228   113947381.385 8  21683472.665    88790286.793 8
 92  8 14  7 48 60.0000000  0  5G26G 3G17G12G23                     -0.000000078
  22781462.250   119717314.151 7  22781460.047    93286329.575 7
  23774217.249   124934311.880 6  23774221.736    97351520.737 6
  20483212.096   107639944.073 8  20483209.593    83875400.160 9
  21402078.775   112468677.061 8  21402080.676    87638055.640 8
  21678463.657   113921059.422 8  21678464.245    88769776.153 8
 92  8 14  7 49 15.0000000  0  5G26G 3G17G12G23                      0.000000030
  22788282.160   119753164.018 7  22788282.774    93314264.503 7
  23782746.174   124979119.686 6  23782747.883    97386435.882 6
  20482440.697   107635914.347 8  20482442.764    83872260.123 9
  21396139.218   112437459.480 8  21396140.417    87613730.270 8
  21673413.137   113894511.761 8  21673411.910    88749089.687 8
 92  8 14  7 49 30.0000000  0  5G26G 3G17G12G23                     -0.000000003
  22795151.988   119789234.210 7  22795147.420    93342371.079 7
  23791314.686   125024165.517 6  23791320.779    97421536.457 6
  20481741.801   107632237.621 8  20481743.099    83869395.113 9
  21390259.269   112406584.140 8  21390265.031    87589671.549 8
  21668401.890   113868199.478 8  21668404.600    88728586.586 8
 92  8 14  7 49 45.0000000  0  5G26G 3G17G12G23                     -0.000000081
  22802025.777   119825372.211 7  22802024.001    93370530.529 7
  23799904.602   125069297.830 6  23799909.649    97456704.444 6
  20481081.900   107628761.821 8  20481081.676    83866686.693 9
  21384420.251   112375899.893 8  21384425.774    87565761.765 8
  21663414.361   113841970.836 8  21663413.948    88708148.701 8
 92  8 14  7 50  0.0000000  0  5G26G 3G17G12G23                     -0.000000010
  22808852.867   119861272.812 7  22808855.409    93398505.003 7
  23808450.828   125114210.554 6  23808455.268    97491701.328 6
  20480400.717   107625183.178 8  20480400.679    83863898.126 9
  21378562.675   112345102.122 8  21378565.401    87541763.519 8
  21658378.029   113815520.735 8  21658380.416    88687538.230 8
 92  8 14  7 50 15.0000000  0  5G26G 3G17G12G23                      0.000000019
  22815697.953   119897238.983 7  22815700.753    93426530.543 7
  23817012.309   125159208.439 6  23817019.047    97526764.569 6
  20479755.024   107621808.039 8  20479758.408    83861268.134 9
  21372740.201   112314495.819 8  21372740.970    87517914.449 8
  21653364.586   113789154.915 8  21653363.411    88666993.432 8
 92  8 14  7 50 30.0000000  0  5G26G 3G17G12G23                      0.000000006
  22822554.236   119933270.992 7  22822556.909    93454607.357 7
  23825593.476   125204292.776 6  23825598.053    97561895.166 6
  20479155.985   107618639.068 8  20479155.370    83858798.793 9
  21366949.260   112284083.218 8  21366953.646    87494216.323 8
  21648362.242   113762878.417 8  21648363.160    88646518.242 8
 92  8 14  7 50 45.0000000  0  5G26G 3G17G12G23                      0.000000047
  22829390.627   119969215.470 7  22829395.689    93482616.016 7
  23834159.690   125249311.532 6  23834164.578    97596974.652 6
  20478561.111   107615525.983 8  20478563.209    83856372.994 9
  21361173.212   112253712.877 8  21361174.853    87470551.131 8
  21643354.153   113736541.733 8  21643350.967    88625996.148 8
 92  8 14  7 51  0.0000000  0  5G26G 3G17G12G23                      0.000000047
  22836247.872   120005222.535 7  22836247.597    93510673.435 7
  23842748.236   125294413.649 6  23842747.219    97632119.133 6
  20478009.356   107612617.489 8  20478009.253    83854106.635 9
  21355428.809   112223534.837 8  21355432.164    87447035.782 8
  21638355.850   113710296.474 8  21638356.903    88605545.293 8
 92  8 14  7 51 15.0000000  0  5G26G 3G17G12G23                      0.000000006
  22843113.150   120041292.816 7  22843112.752    93538780.096 7
  23851338.231   125339598.375 6  23851346.051    97667327.912 6
  20477497.088   107609916.505 8  20477495.510    83852001.943 9
  21349723.403   112193548.728 8  21349725.508    87423669.979 8
  21633378.291   113684140.223 8  21633379.779    88585163.801 8
 92  8 14  7 51 30.0000000  0  5G26G 3G17G12G23                     -0.000000073
  22849986.742   120077425.788 7  22849988.623    93566935.640 7
  23859955.361   125384865.699 6  23859960.859    97702601.112 6
  20477022.620   107607426.157 8  20477021.368    83850061.411 9
  21344054.691   112163755.444 8  21344055.793    87400454.445 8
  21628415.903   113658073.700 8  21628419.486    88564852.229 8
 92  8 14  7 51 45.0000000  0  5G26G 3G17G12G23                      0.000000002
  22856818.520   120113316.023 7  22856818.047    93594901.990 7
  23868527.892   125429912.655 6  23868532.013    97737702.555 6
  20476525.686   107604843.752 8  20476530.193    83848049.132 9
  21338362.691   112133852.783 8  21338365.994    87377153.665 8
  21623413.248   113631794.572 8  21623418.976    88544374.977 8
 92  8 14  7 51 60.0000000  0  5G26G 3G17G12G23                     -0.000000061
  22863689.424   120149424.867 7  22863689.575    93623038.747 7
  23877146.084   125475199.558 6  23877150.301    97772991.002 6
  20476107.570   107602631.540 8  20476109.464    83846325.320 9
  21332739.662   112104301.567 8  21332742.831    87354126.755 8
  21618465.393   113605764.416 8  21618465.604    88524091.746 8
 92  8 14  7 52 15.0000000  0  5G26G 3G17G12G23                     -0.000000066
  22870545.763   120185445.171 6  22870543.511    93651106.470 7
  23885745.497   125520417.780 5  23885755.513    97808225.909 6
  20475698.600   107600481.389 8  20475700.545    83844649.865 9
  21327124.752   112074794.014 8  21327127.487    87331133.860 8
  21613500.798   113579677.292 8  21613501.633    88503764.116 8
 92  8 14  7 52 30.0000000  0  5G26G 3G17G12G23                     -0.000000016
  22877380.774   120221379.396 7  22877381.554    93679107.112 7
  23894341.852   125565568.933 5  23894347.224    97843408.528 6
  20475302.192   107598394.250 8  20475303.616    83843023.507 9
  21321519.564   112045332.552 8  21321520.910    87308176.865 8
  21608526.643   113553535.930 8  21608526.607    88483394.214 8
 92  8 14  7 52 45.0000000  0  5G26G 3G17G12G23                     -0.000000011
  22884232.499   120257381.451 7  22884233.484    93707160.620 7
  23902943.822   125610805.587 5  23902955.702    97878657.807 6
  20474946.779   107596519.539 8  20474946.381    83841562.690 9
  21315951.960   112016070.597 8  21315952.547    87285375.350 8
  21603565.806   113527490.556 8  21603570.340    88463099.129 8
 92  8 14  7 53  0.0000000  0  5G26G 3G17G12G23                     -0.000000051
  22891094.632   120293450.206 7  22891097.620    93735266.111 7
  23911584.796   125656126.211 6  23911580.158    97913972.513 6
  20474628.130   107594852.031 8  20474629.549    83840263.313 9
  21310418.138   111987007.165 8  21310422.206    87262728.528 8
  21598631.286   113501538.483 8  21598631.580    88442876.733 8
 92  8 14  7 53 15.0000000  0  5G26G 3G17G12G23                     -0.000000039
  22897942.847   120329431.821 6  22897943.223    93763303.710 7
  23920184.203   125701376.401 5  23920190.723    97949232.337 6
  20474319.054   107593237.826 8  20474321.885    83839005.481 9
  21304896.484   111957988.679 8  21304900.174    87240116.727 8
  21593682.102   113475524.345 8  21593681.257    88422605.987 8
 92  8 14  7 53 30.0000000  0  5G26G 3G17G12G23                      0.000000029
  22904773.273   120365323.947 6  22904773.497    93791271.542 7
  23928774.518   125746555.809 5  23928788.547    97984436.987 6
  20474024.655   107591679.746 8  20474025.635    83837791.385 9
  21299382.502   111929015.507 8  21299386.762    87217540.228 8
  21588717.958   113449448.588 8  21588719.450    88402287.221 8
 92  8 14  7 53 45.0000000  0  5G26G 3G17G12G23                     -0.000000046
  22911643.769   120401436.650 7  22911645.750    93819411.268 7
  23937425.603   125791974.570 5  23937431.434    98019828.165 6
  20473797.256   107590484.758 8  20473798.233    83836860.213 9
  21293938.217   111900398.596 8  21293941.145    87195241.336 8
  21583803.071   113423623.684 8  21583804.647    88382163.921 8
 92  8 14  7 53 60.0000000  0  5G26G 3G17G12G23                     -0.000000070
  22918499.944   120437464.094 7  22918501.536    93847484.565 7
  23946052.259   125837323.954 5  23946060.872    98055165.272 6
  20473578.253   107589342.886 8  20473580.938    83835970.425 9
  21288502.323   111871829.779 8  21288504.680    87172979.921 8
  21578880.257   113397741.125 8  21578879.604    88361995.693 8
 92  8 14  7 54 15.0000000  0  5G26G 3G17G12G23                      0.000000053
  22925309.322   120473252.614 6  22925311.859    93875371.699 7
  23954649.939   125882449.067 6  23954648.364    98090327.618 6
  20473342.653   107588098.800 8  20473344.194    83835001.000 9
  21283045.495   111843154.955 8  21283047.554    87150635.904 8
  21573911.355   113371647.368 8  21573913.883    88341662.896 8
 92  8 14  7 54 30.0000000  0  5G26G 3G17G12G23                      0.000000032
  22932158.468   120509261.120 6  22932164.278    93903430.211 7
  23963280.331   125927809.082 6  23963279.819    98125672.982 6
  20473175.817   107587211.074 8  20473175.508    83834309.260 9
  21277653.708   111814833.925 8  21277658.487    87128567.574 8
  21568996.408   113345798.146 8  21568995.185    88321520.652 8
 92  8 14  7 54 45.0000000  0  5G26G 3G17G12G23                      0.000000061
  22938999.191   120545187.363 7  22939000.322    93931424.668 7
  23971893.860   125973101.484 6  23971899.149    98160965.695 6
  20473015.315   107586377.629 8  20473016.414    83833659.794 9
  21272278.515   111786565.095 8  21272278.863    87106539.915 8
  21564062.796   113319885.840 8  21564064.483    88301329.250 8
 92  8 14  7 54 60.0000000  0  5G26G 3G17G12G23                      0.000000042
  22945846.401   120581185.693 6  22945850.329    93959475.299 7
  23980521.783   126018480.522 6  23980534.231    98196325.914 6
  20472896.316   107585756.287 8  20472898.418    83833175.622 9
  21266936.627   111758503.285 8  21266939.124    87084673.573 8
  21559150.751   113294064.871 8  21559151.160    88281209.016 8
 92  8 14  7 55 15.0000000  0  5G26G 3G17G12G23                     -0.000000021
  22952712.480   120617253.181 6  22952714.468    93987579.801 7
  23989180.530   126063943.548 6  23989185.543    98231751.591 6
  20472819.805   107585352.219 8  20472821.767    83832860.749 9
  21261636.822   111730646.622 8  21261638.422    87062967.088 8
  21554255.053   113268335.802 8  21554254.351    88261160.399 8
 92  8 14  7 55 30.0000000  0  5G26G 3G17G12G23                      0.000000066
  22959526.774   120653081.538 7  22959533.094    94015497.934 7
  23997792.269   126109182.539 6  23997794.462    98267002.676 6
  20472724.433   107584860.031 8  20472727.861    83832477.219 9
  21256315.832   111702687.628 8  21256317.758    87041180.857 8
  21549317.995   113242390.386 8  21549317.349    88240943.203 8
 92  8 14  7 55 45.0000000  0  5G26G 3G17G12G23                      0.000000013
  22966393.051   120689132.066 7  22966393.029    94043589.223 7
  24006435.359   126154657.286 6  24006448.007    98302437.493 6
  20472703.934   107584737.309 8  20472704.506    83832381.584 9
  21251062.695   111675087.209 8  21251065.577    87019674.053 8
  21544426.418   113216690.977 8  21544426.917    88220917.700 8
 92  8 14  7 56  0.0000000  0  5G26G 3G17G12G23                     -0.000000086
  22973262.193   120725253.654 6  22973266.726    94071735.863 7
  24015110.389   126200215.878 6  24015116.774    98337937.647 6
  20472720.899   107584830.464 8  20472722.230    83832454.161 9
  21245849.539   111647693.887 8  21245853.046    86998328.609 8
  21539549.720   113191085.754 8  21539554.404    88200965.572 8
 92  8 14  7 56 15.0000000  0  5G26G 3G17G12G23                     -0.000000035
  22980092.187   120761134.513 7  22980094.133    94099694.953 7
  24023737.769   126245549.065 6  24023744.345    98373262.107 6
  20472722.440   107584832.558 8  20472722.869    83832455.779 9
  21240618.396   111620199.046 8  21240620.951    86976904.058 8
  21534641.816   113165264.545 8  21534641.283    88180845.163 8
 92  8 14  7 56 30.0000000  0  5G26G 3G17G12G23                     -0.000000028
  22986931.674   120797085.262 7  22986935.077    94127708.477 7
  24032390.843   126290966.276 6  24032386.694    98408652.082 6
  20472762.096   107585053.957 8  20472764.997    83832628.284 9
  21235424.536   111592913.125 8  21235428.614    86955642.304 8
  21529743.262   113139535.472 8  21529744.711    88160796.519 8
 92  8 14  7 56 45.0000000  0  5G26G 3G17G12G23                     -0.000000067
  22993783.625   120833105.507 7  22993790.229    94155776.175 7
  24041045.247   126336467.475 6  24041045.269    98444107.499 6
  20472846.673   107585495.409 8  20472848.757    83832972.267 9
  21230271.848   111565836.571 8  21230276.119    86934543.698 8
  21524867.290   113113899.066 8  21524866.513    88140820.114 8
 92  8 14  7 57  0.0000000  0  5G26G 3G17G12G23                      0.000000046
  23000595.172   120868884.426 7  23000598.476    94183655.810 7
  24049648.648   126381741.651 6  24049660.158    98479386.028 6
  20472916.987   107585846.914 8  20472915.642    83833246.151 9
  21225098.433   111538659.089 8  21225104.172    86913366.439 8
  21519944.982   113088050.162 8  21519947.387    88120678.119 8
 92  8 14  7 57 15.0000000  0  6G26G 3G21G17G12G23                   0.000000016
  23007446.481   120904886.300 6  23007449.880    94211709.163 7
  24058311.207   126427252.709 6  24058320.607    98514849.119 6
  24215121.225   127251306.91316  24215124.404    99156983.45516
  20473055.215   107586573.305 8  20473053.867    83833812.158 9
  21219997.473   111511845.365 8  21220001.692    86892472.635 8
  21515077.663   113062457.229 8  21515077.215    88100735.577 8
 92  8 14  7 57 30.0000000  0  6G26G 3G21G17G12G23                  -0.000000061
  23014309.508   120940958.750 7  23014314.475    94239817.533 7
  24066990.198   126472847.112 6  24066997.158    98550377.144 6
  24208233.823   127215080.369 6  24208229.749    99128754.996 6
  20473233.717   107587517.340 8  20473233.512    83834547.774 9
  21214937.591   111485242.503 8  21214939.577    86871743.124 8
  21510227.524   113036967.576 8  21510226.694    88080873.505 8
 92  8 14  7 57 45.0000000  0  6G26G 3G21G17G12G23                  -0.000000090
  23021160.561   120976949.278 7  23021163.486    94267862.089 7
  24075661.750   126518370.424 6  24075659.706    98585849.830 6
  24201296.234   127178755.093 5  24201317.274    99100449.568 6
  20473420.528   107588521.040 8  20473424.748    83835329.856 9
  21209885.529   111458696.738 8  21209887.846    86851058.129 8
  21505367.440   113011426.662 8  21505366.425    88060971.514 8
 92  8 14  7 57 60.0000000  0  6G26G 3G21G17G12G23                  -0.000000015
  23027962.223   121012704.251 7  23027967.417    94295723.050 7
  24084276.254   126563668.949 6  24084280.932    98621147.309 6
  24194352.123   127142177.545 6  24194356.564    99071947.622 6
  20473592.726   107589432.946 8  20473598.276    83836040.424 9
  21204813.692   111432055.054 8  21204818.348    86830298.383 8
  21500466.091   112985679.898 8  21500467.220    88040909.091 8
 92  8 14  7 58 15.0000000  0  6G26G 3G21G17G12G23                   0.000000041
  23034783.241   121048531.944 7  23034785.188    94323640.680 7
  24092913.861   126609050.882 6  24092916.320    98656509.781 5
  24187400.828   127105659.242 6  24187407.610    99043491.818 6
  20473808.923   107590564.066 8  20473813.276    83836921.811 9
  21199783.537   111405626.413 8  21199788.903    86809704.646 8
  21495587.403   112960036.221 8  21495587.396    88020927.025 8
 92  8 14  7 58 30.0000000  0  6G26G 3G21G17G12G23                   0.000000053
  23041613.802   121084434.780 7  23041617.265    94351616.894 7
  24101567.232   126654516.651 6  24101568.400    98691937.603 6
  24180470.228   127069204.696 6  24180471.525    99015085.708 6
  20474067.251   107591915.587 8  20474070.704    83837974.936 9
  21194798.508   111379411.909 8  21194800.450    86789277.766 8
  21490725.463   112934498.556 8  21490727.252    88001027.550 8
 92  8 14  7 58 45.0000000  0  6G26G 3G21G17G12G23                   0.000000115
  23048432.995   121120254.881 7  23048432.855    94379528.596 7
  24110203.954   126699907.935 6  24110205.814    98727307.367 6
  24173510.039   127032655.655 6  24173517.202    98986605.920 6
  20474338.126   107593330.048 8  20474339.862    83839077.093 9
  21189819.093   111353253.908 8  21189822.750    86768894.913 8
  21485858.803   112908913.083 8  21485858.743    87981090.819 8
 92  8 14  7 59  0.0000000  0  6G26G 3G21G17G12G23                  -0.000000066
  23055320.343   121156458.144 7  23055322.829    94407738.889 7
  24118915.184   126745690.753 6  24118917.979    98762982.229 6
  24166623.421   126996478.233 6  24166631.649    98958415.730 6
  20474705.863   107595275.516 8  20474710.069    83840593.028 9
  21184940.618   111327619.346 8  21184944.655    86748919.930 8
  21481069.834   112883749.879 8  21481070.590    87961483.131 8
 92  8 14  7 59 15.0000000  0  6G26G 3G21G17G12G23                  -0.000000002
  23062134.377   121192271.133 7  23062138.052    94435645.085 7
  24127556.463   126791090.981 6  24127557.583    98798358.964 6
  24159668.912   126959897.042 6  24159671.708    98929910.936 6
  20475030.259   107596977.234 8  20475033.894    83841919.038 9
  21180016.040   111301734.515 8  21180018.933    86728749.921 8
  21476211.848   112858233.991 8  21476215.080    87941600.629 8
 92  8 14  7 59 30.0000000  0  6G26G 3G21G17G12G23                   0.000000013
  23068967.487   121228160.368 7  23068967.049    94463610.687 7
  24136207.718   126836574.636 6  24136212.824    98833800.726 6
  24152718.133   126923375.450 6  24152720.907    98901452.569 6
  20475397.086   107598901.921 8  20475400.149    83843418.792 9
  21175128.857   111276066.194 8  21175134.171    86708748.638 8
  21471378.081   112832831.375 8  21471380.879    87921806.384 8
 92  8 14  7 59 45.0000000  0  6G26G 3G21G17G12G23                  -0.000000021
  23075806.775   121264125.066 7  23075811.385    94491635.099 7
  24144881.308   126882139.659 6  24144884.276    98869305.873 6
  24145776.688   126886914.914 6  24145782.702    98873041.778 6
  20475804.739   107601048.149 8  20475808.559    83845091.164 9
  21170289.317   111250613.239 8  21170290.639    86688915.184 8
  21466566.550   112807542.609 8  21466568.833    87902100.863 8
 92  8 14  8  0  0.0000000  0  6G26G 3G21G17G12G23                  -0.000000007
  23082637.502   121300013.781 6  23082640.282    94519600.292 7
  24153533.707   126927635.323 6  24153541.796    98904756.970 6
  24138828.014   126850365.384 6  24138826.833    98844561.658 6
  20476227.842   107603269.574 8  20476231.038    83846822.143 9
  21165456.048   111225225.239 8  21165459.705    86669132.317 8
  21461746.579   112782217.488 8  21461749.626    87882367.016 8
 92  8 14  8  0 15.0000000  0  6G26G 3G21G17G12G23                  -0.000000041
  23089481.026   121335979.743 7  23089485.332    94547625.626 7
  24162215.891   126973214.508 6  24162215.205    98940273.133 6
  24131875.959   126813878.090 6  24131884.020    98816129.997 6
  20476695.699   107605719.176 8  20476697.176    83848730.899 9
  21160667.792   111200055.787 8  21160669.873    86649519.756 8
  21456951.614   112757008.777 8  21456952.565    87862723.852 8
 92  8 14  8  0 30.0000000  0  6G26G 3G21G17G12G23                  -0.000000026
  23096310.569   121371867.233 7  23096314.003    94575589.895 7
  24170873.011   127018720.981 6  24170874.545    98975732.681 6
  24124922.618   126777298.033 6  24124923.064    98787626.048 6
  20477177.075   107608238.827 8  20477176.893    83850694.262 9
  21155890.072   111174949.698 8  21155892.345    86629956.578 8
  21452146.955   112731761.128 8  21452148.105    87843050.390 8
 92  8 14  8  0 45.0000000  0  6G26G 3G21G17G12G23                   0.000000035
  23103127.347   121407679.642 7  23103128.624    94603495.627 7
  24179523.863   127064156.515 6  24179520.619    99011136.907 6
  24117942.590   126740623.739 6  24117944.431    98759048.713 6
  20477668.812   107610830.922 8  20477670.149    83852714.063 9
  21151125.972   111149909.181 8  21151127.541    86610444.503 8
  21447335.223   112706474.305 8  21447336.179    87823346.361 8
 92  8 14  8  0 60.0000000  0  6G26G 3G21G17G12G23                   0.000000047
  23109960.013   121443570.544 7  23109959.156    94631462.515 7
  24188185.994   127109675.321 6  24188182.785    99046606.031 6
  24110977.778   126704007.405 6  24110976.575    98730516.508 6
  20478206.005   107613648.887 8  20478206.386    83854909.862 9
  21146401.895   111125088.988 8  21146403.931    86591104.111 8
  21442540.928   112681298.115 8  21442545.067    87803728.557 8
 92  8 14  8  1 15.0000000  0  6G26G 3G21G17G12G23                  -0.000000090
  23116827.592   121479691.918 6  23116832.086    94659609.013 7
  24196886.705   127155428.866 6  24196890.113    99082258.082 6
  24104041.741   126667600.287 6  24104049.021    98702147.329 6
  20478814.139   107616844.655 8  20478814.518    83857400.063 9
  21141750.056   111100641.411 8  21141751.952    86572054.032 8
  21437803.474   112656380.626 8  21437803.918    87784312.343 8
 92  8 14  8  1 30.0000000  0  6G26G 3G21G17G12G23                   0.000000018
  23123634.540   121515426.670 6  23123632.165    94687454.201 7
  24205517.199   127200800.416 6  24205523.526    99117612.465 6
  24097036.212   126630787.984 6  24097043.143    98673462.433 6
  20479375.780   107619803.098 8  20479377.735    83859705.341 9
  21137050.388   111075950.489 8  21137053.675    86552814.375 8
  21432991.968   112631103.988 8  21432993.447    87764616.271 8
 92  8 14  8  1 45.0000000  0  6G26G 3G21G17G12G23                  -0.000000023
  23130473.440   121551392.334 7  23130477.411    94715479.338 7
  24214202.424   127246407.579 6  24214202.258    99153150.422 6
  24090077.609   126594191.276 6  24090078.530    98644945.505 6
  20480011.556   107623143.123 8  20480012.826    83862307.934 9
  21132423.738   111051634.280 8  21132426.695    86533866.664 8
  21428234.285   112606087.194 8  21428233.151    87745122.652 8
 92  8 14  8  1 60.0000000  0  6G26G 3G21G17G12G23                  -0.000000018
  23137306.867   121587278.234 6  23137304.796    94743442.340 7
  24222858.043   127291941.164 5  24222867.243    99188631.090 6
  24083101.359   126557503.836 6  24083097.635    98616357.910 7
  20480659.010   107626554.515 8  20480662.237    83864966.162 9
  21127808.777   111027384.498 8  21127811.632    86514970.754 8
  21423460.091   112581017.638 8  21423462.086    87725587.940 8
 92  8 14  8  2 15.0000000  0  6G26G 3G21G17G12G23                  -0.000000064
  23144145.481   121623239.394 6  23144147.968    94771463.985 7
  24231530.488   127337557.174 5  24231547.667    99224175.974 6
  24076131.611   126520880.561 6  24076128.947    98587820.297 7
  20481355.931   107630191.860 8  20481354.395    83867800.434 9
  21123236.821   111003357.707 8  21123239.236    86496248.554 8
  21418709.722   112556049.281 8  21418711.254    87706132.077 8
 92  8 14  8  2 30.0000000  0  6G26G 3G21G17G12G23                   0.000000033
  23150943.472   121658965.075 6  23150946.821    94799302.149 7
  24240186.080   127382945.617 6  24240185.018    99259543.482 6
  24069110.344   126484014.556 6  24069113.579    98559093.534 7
  20482030.118   107633741.740 8  20482029.670    83870566.572 9
  21118647.097   110979244.545 8  21118651.393    86477459.105 8
  21413919.434   112530873.148 8  21413920.151    87686514.312 8
 92  8 14  8  2 45.0000000  0  6G26G 3G21G17G12G23                  -0.000000022
  23157788.850   121694917.780 6  23157788.388    94827317.221 7
  24248863.426   127428569.375 5  24248867.149    99295094.354 6
  24062134.980   126447369.767 6  24062139.819    98530539.154 7
  20482777.397   107637669.717 8  20482777.135    83873627.318 9
  21114129.876   110955508.389 8  21114134.309    86458963.402 8
  21409180.004   112505958.272 8  21409179.254    87667100.128 8
 92  8 14  8  3  0.0000000  0  6G26G 3G21G17G12G23                   0.000000069
  23164582.153   121730634.831 6  23164586.322    94855148.627 7
  24257505.311   127473965.786 6  24257506.032    99330468.137 6
  24055114.074   126410483.657 6  24055120.630    98501796.748 7
  20483508.599   107641516.207 8  20483509.586    83876624.581 9
  21109598.267   110931687.620 8  21109601.613    86440401.770 8
  21404397.902   112480844.159 8  21404399.955    87647530.699 8
 92  8 14  8  3 15.0000000  0  6G26G 3G21G17G12G23                   0.000000014
  23171422.835   121766574.853 6  23171424.982    94883153.794 7
  24266180.165   127519594.455 5  24266188.127    99366022.866 6
  24048141.315   126373820.563 6  24048144.121    98473228.112 7
  20484311.861   107645741.379 8  20484313.362    83879916.907 9
  21105138.097   110908242.267 8  21105139.622    86422132.664 8
  21399671.883   112455992.762 8  21399670.892    87628165.975 8
 92  8 14  8  3 30.0000000  0  6G26G 3G21G17G12G23                  -0.000000096
  23178280.556   121802590.422 6  23178278.495    94911217.785 7
  24274882.072   127565307.282 6  24274887.460    99401643.179 6
  24041173.515   126337234.529 6  24041182.276    98444719.518 7
  20485159.126   107650198.785 8  20485161.819    83883390.198 9
  21100720.548   110885024.893 8  21100721.750    86404041.213 8
  21394968.857   112431261.195 8  21394964.383    87608894.609 8
 92  8 14  8  3 45.0000000  0  6G26G 3G21G17G12G23                   0.000000035
  23185047.402   121838218.440 6  23185058.267    94938979.819 7
  24283516.604   127610641.054 6  24283515.153    99436968.140 6
  24034137.595   126300263.520 6  24034146.929    98415910.951 7
  20485963.775   107654422.246 8  20485965.517    83886681.208 9
  21096253.627   110861573.062 8  21096259.260    86385767.063 8
  21390193.251   112406189.213 8  21390193.590    87589358.008 8
 92  8 14  8  3 60.0000000  0  6G26G 3G21G17G12G23                   0.000000016
  23191877.288   121874071.732 6  23191881.148    94966917.377 7
  24292176.659   127656208.950 6  24292186.166    99472475.487 6
  24027155.278   126263519.196 6  24027154.970    98387279.045 7
  20486839.648   107659022.989 8  20486841.006    83890266.187 9
  21091864.198   110838500.459 8  21091868.691    86367788.417 8
  21385470.628   112381389.662 8  21385474.636    87570033.682 8
 92  8 14  8  4 15.0000000  0  6G26G 3G21G17G12G23                   0.000000044
  23198688.210   121909842.368 6  23198687.586    94994790.600 7
  24300832.080   127701701.494 6  24300842.848    99507924.155 6
  24020129.178   126226689.787 6  24020146.082    98358580.822 7
  20487726.950   107663691.795 8  20487729.449    83893904.214 9
  21087488.975   110815498.505 8  21087491.570    86349864.838 8
  21380749.171   112356553.240 8  21380748.425    87550680.639 8
 92  8 14  8  4 30.0000000  0  6G26G 3G21G17G12G23                   0.000000019
  23205502.883   121945690.718 6  23205509.527    95022724.310 7
  24309511.437   127747275.824 6  24309515.831    99543436.569 6
  24013152.560   126189930.417 6  24013151.254    98329937.172 7
  20488659.835   107668586.138 8  20488660.810    83897717.982 9
  21083155.997   110792724.556 8  21083157.588    86332118.905 8
  21376040.864   112331839.919 8  21376045.391    87531423.499 8
 92  8 14  8  4 45.0000000  0  6G26G 3G21G17G12G23                  -0.000000059
  23212342.666   121981617.019 6  23212346.066    95050718.795 7
  24318194.619   127792931.257 6  24318203.747    99579012.134 6
  24006166.110   126153241.373 6  24006168.589    98301348.323 7
  20489637.127   107673708.841 8  20489635.625    83901709.686 8
  21078864.390   110770179.005 8  21078867.313    86314550.947 8
  21371365.209   112307250.187 8  21371366.365    87512262.669 8
 92  8 14  8  4 60.0000000  0  6G26G 3G21G17G12G23                   0.000000007
  23219139.396   122017312.075 6  23219138.839    95078533.064 7
  24326837.365   127838357.193 6  24326847.756    99614408.905 6
  23999143.543   126116310.533 6  23999141.371    98272571.040 7
  20490594.984   107678751.411 8  20490595.189    83905638.941 9
  21074559.313   110747551.676 8  21074561.477    86296919.268 8
  21366650.016   112282469.678 8  21366650.792    87492953.185 8
 92  8 14  8  5 15.0000000  0  6G26G 3G21G17G12G23                  -0.000000082
  23225969.299   122053242.457 6  23225976.402    95106530.743 7
  24335535.180   127884019.517 6  24335536.994    99649989.885 6
  23992147.164   126079606.316 6  23992156.799    98243970.389 7
  20491627.444   107684177.028 8  20491627.649    83909866.692 8
  21070325.395   110725309.283 8  21070328.895    86279587.552 8
  21361985.023   112257959.974 8  21361986.503    87473854.705 8
 92  8 14  8  5 30.0000000  0  6G26G 3G21G17G12G23                   0.000000068
  23232736.055   122088789.001 6  23232740.182    95134229.291 7
  24344149.174   127929298.360 6  24344153.744    99685272.036 6
  23985087.427   126042508.148 6  23985096.764    98215062.722 7
  20492612.164   107689362.764 8  20492614.213    83913907.507 9
  21066050.453   110702832.312 8  21066051.667    86262073.021 8
  21357254.735   112233103.141 8  21357256.407    87454485.750 8
 92  8 14  8  5 45.0000000  0  6G26G 3G21G17G12G23                   0.000000064
  23239545.550   122124570.139 6  23239549.095    95162110.650 7
  24352811.034   127974811.743 6  24352814.390    99720736.932 6
  23978079.961   126005632.663 6  23978079.597    98186328.598 7
  20493672.799   107694926.442 8  20493673.189    83918242.835 9
  21061845.411   110680739.670 8  21061847.338    86244857.997 8
  21352576.519   112208517.954 8  21352577.755    87435328.454 8
 92  8 14  8  6  0.0000000  0  6G26G 3G21G17G12G23                   0.000000003
  23246371.218   122160433.267 6  23246373.849    95190055.875 7
  24361482.347   128020406.801 6  24361491.315    99756265.491 6
  23971078.610   125968824.318 6  23971075.451    98157646.790 7
  20494774.456   107700715.687 8  20494774.844    83922753.930 8
  21057685.301   110658879.144 8  21057687.663    86227823.820 8
  21347921.082   112184050.468 8  21347922.240    87416262.895 8
 92  8 14  8  6 15.0000000  0  6G26G 3G21G17G12G23                  -0.000000016
  23253180.087   122196224.112 6  23253185.090    95217944.770 7
  24370149.891   128065928.052 6  24370153.705    99791736.527 6
  23964045.895   125931927.147 6  23964053.667    98128895.759 7
  20495889.167   107706576.533 8  20495890.120    83927320.797 8
  21053541.561   110637095.640 8  21053542.400    86210849.664 8
  21343260.164   112159545.178 8  21343259.034    87397167.850 8
 92  8 14  8  6 30.0000000  0  6G26G 3G21G17G12G23                   0.000000105
  23259951.736   122231790.368 6  23259952.628    95245658.706 7
  24378769.542   128111221.621 6  24378773.017    99827030.169 6
  23956981.659   125894788.338 6  23956986.392    98099956.451 7
  20496989.582   107712357.251 8  20496990.155    83931825.256 8
  21049378.586   110615236.061 8  21049382.422    86193816.248 8
  21338558.562   112134850.089 8  21338559.719    87377924.939 8
 92  8 14  8  6 45.0000000  0  6G26G 3G21G17G12G23                   0.000000072
  23266760.806   122267592.273 7  23266764.762    95273556.258 7
  24387431.139   128156748.624 6  24387435.775    99862505.715 6
  23949963.718   125857874.808 6  23949962.714    98071192.660 7
  20498159.686   107718519.191 8  20498162.488    83936626.764 8
  21045292.997   110593762.146 8  21045296.075    86177083.339 8
  21333913.349   112110427.332 8  21333911.980    87358894.225 8
 92  8 14  8  6 60.0000000  0  6G26G 3G21G17G12G23                   0.000000079
  23273560.347   122303322.105 6  23273564.155    95301397.635 6
  24396073.591   128202202.017 6  24396086.465    99897923.847 6
  23942917.884   125820882.700 6  23942922.871    98042367.680 7
  20499346.781   107724754.414 8  20499349.253    83941485.368 8
  21041219.849   110572367.609 8  21041225.074    86160412.273 8
  21329250.045   112085971.506 8  21329258.434    87339837.733 8
 92  8 14  8  7 15.0000000  0  6G26G 3G21G17G12G23                   0.000000028
  23280382.417   122339133.324 7  23280378.551    95329302.448 6
  24404747.848   128247736.541 6  24404750.170    99933405.270 6
  23935894.182   125783967.897 6  23935898.464    98013602.911 7
  20500579.875   107731214.369 8  20500578.537    83946519.081 8
  21037195.355   110551207.751 8  21037198.245    86143924.082 8
  21324630.420   112061638.212 8  21324627.716    87320876.714 8
 92  8 14  8  7 30.0000000  0  6G26G 3G21G17G12G23                   0.000000018
  23287180.270   122374870.281 7  23287179.303    95357149.390 7
  24413402.109   128293196.989 6  24413401.961    99968828.908 6
  23928857.948   125746976.240 6  23928858.702    97984778.263 7
  20501821.717   107737744.292 8  20501820.893    83951607.320 8
  21033184.181   110530127.889 8  21033186.880    86127498.212 8
  21319991.933   112037275.796 8  21319992.193    87301893.022 8
 92  8 14  8  7 45.0000000  0  6G26G 3G21G17G12G23                  -0.000000049
  23293990.662   122410684.132 7  23293994.927    95385056.232 7
  24422059.530   128338735.047 6  24422067.556   100004313.070 5
  23921831.994   125710058.601 6  23921833.993    97956011.250 7
  20503106.671   107744500.770 8  20503106.603    83956872.088 8
  21029216.275   110509280.403 8  21029219.979    86111253.416 8
  21315381.111   112013035.763 8  21315378.982    87283004.696 8
 92  8 14  8  7 60.0000000  0  6G26G 3G21G17G12G23                   0.000000024
  23300762.969   122446271.846 7  23300767.279    95412786.879 7
  24430677.806   128384046.394 6  24430690.738   100039620.558 5
  23914760.035   125672911.209 6  23914764.597    97927065.258 7
  20504377.365   107751181.312 8  20504378.112    83962077.705 8
  21025236.113   110488361.510 8  21025239.253    86094953.007 8
  21310731.018   111988612.359 8  21310731.365    87263973.483 8
 92  8 14  8  8 15.0000000  0  6G26G 3G21G17G12G23                  -0.000000058
  23307580.089   122482095.052 7  23307583.460    95440701.001 7
  24439350.553   128429591.983 6  24439357.028   100075110.568 5
  23907741.898   125635998.648 6  23907740.867    97898302.257 7
  20505722.231   107758249.632 8  20505723.165    83967585.475 8
  21021333.047   110467832.758 8  21021332.517    86078956.575 8
  21306135.017   111964466.215 8  21306136.995    87245158.303 8
 92  8 14  8  8 30.0000000  0  6G26G 3G21G17G12G23                  -0.000000002
  23314355.970   122517690.547 7  23314357.050    95468437.721 6
  24447973.262   128474907.626 6  24447980.038   100110421.353 5
  23900677.273   125598861.791 6  23900673.711    97869364.434 7
  20507054.198   107765244.167 8  20507053.933    83973035.747 8
  21017408.251   110447230.817 8  21017412.099    86062903.119 8
  21301506.198   111940133.605 8  21301506.166    87226197.833 8
 92  8 14  8  8 45.0000000  0  6G26G 3G21G17G12G23                  -0.000000006
  23321144.832   122553369.261 6  23321147.452    95496239.280 6
  24456612.693   128520304.145 5  24456618.456   100145795.229 5
  23893623.390   125561813.386 6  23893623.638    97840495.566 7
  20508429.979   107772475.946 8  20508430.337    83978670.889 8
  21013536.732   110426866.847 8  21013536.965    86047035.096 8
  21296895.994   111915924.817 8  21296899.391    87207333.859 8
 92  8 14  8  9  0.0000000  0  6G26G 3G21G17G12G23                   0.000000029
  23327920.923   122588976.859 7  23327923.343    95523985.422 6
  24465240.215   128565627.077 5  24465242.869   100181111.760 5
  23886552.755   125524698.949 6  23886560.755    97811575.239 7
  20509819.390   107779790.349 8  20509822.218    83984370.408 8
  21009675.965   110406587.379 8  21009677.915    86031232.928 8
  21292285.394   111891686.951 8  21292287.080    87188447.219 8
 92  8 14  8  9 15.0000000  0  6G26G 3G21G17G12G23                   0.000000008
  23334713.165   122624664.331 7  23334713.947    95551793.812 6
  24473883.188   128611027.206 5  24473884.405   100216488.405 5
  23879511.654   125487663.713 6  23879513.921    97782716.630 7
  20511260.437   107787341.102 8  20511259.078    83990254.111 8
  21005862.316   110386543.521 8  21005863.940    86015614.339 8
  21287695.326   111867569.983 8  21287697.775    87169654.782 8
 92  8 14  8  9 30.0000000  0  5G26G21G17G12G23                     -0.000000024
  23341520.718   122660433.263 7  23341521.022    95579665.647 6
  23872478.480   125450708.136 6  23872481.273    97753920.115 6
  20512739.932   107795133.903 8  20512741.993    83996326.400 8
  21002092.911   110366737.161 8  21002094.918    86000180.824 8
  21283133.601   111843573.954 8  21283131.483    87150956.578 8
 92  8 14  8  9 45.0000000  0  5G26G21G17G12G23                      0.000000036
  23348283.980   122695980.444 7  23348285.415    95607364.704 6
  23865392.862   125413524.962 6  23865405.300    97724946.187 6
  20514212.060   107802863.986 8  20514213.218    84002349.823 8
  20998309.212   110346861.690 8  20998312.742    85984693.445 8
  21278528.335   111819393.120 8  21278529.781    87132114.378 8
 92  8 14  8 10  0.0000000  0  5G26G21G17G12G23                      0.000000001
  23355065.466   122731620.395 7  23355066.978    95635136.070 6
  23858341.675   125376425.726 7  23858345.552    97696037.700 6
  20515733.120   107810843.211 8  20515731.860    84008567.406 8
  20994573.360   110327230.652 8  20994577.082    85969396.542 8
  21273951.285   111795342.558 8  21273953.599    87113373.678 8
 92  8 14  8 10 15.0000000  0  5G26G21G17G12G23                     -0.000000103
  23361864.070   122767346.298 7  23361865.135    95662974.386 6
  23851300.602   125339402.635 6  23851300.790    97667188.577 6
  20517294.328   107819062.412 8  20517295.674    84014971.963 8
  20990884.238   110307838.188 8  20990886.331    85954285.536 8
  21269398.880   111771419.511 8  21269400.954    87094732.358 8
 92  8 14  8 10 30.0000000  0  5G26G21G17G12G23                      0.000000025
  23368592.305   122802696.414 7  23368592.764    95690519.904 6
  23844183.212   125301995.499 7  23844182.447    97638040.150 6
  20518818.949   107827060.348 8  20518817.874    84021204.118 8
  20987150.552   110288223.536 8  20987154.034    85939001.400 8
  21264784.375   111747164.124 8  21264785.065    87075832.063 8
 92  8 14  8 10 45.0000000  0  5G26G21G17G12G23                      0.000000000
  23375364.334   122838286.664 7  23375365.597    95718252.523 6
  23837099.374   125264813.679 7  23837106.254    97609067.324 6
  20520411.019   107835447.733 8  20520413.446    84027739.720 8
  20983492.167   110269001.593 8  20983495.978    85924023.275 8
  21260220.345   111723190.982 8  21260223.372    87057151.693 8
 92  8 14  8 10 60.0000000  0  5G26G21G17G12G23                      0.000000023
  23382122.318   122873814.110 7  23382125.747    95745936.208 6
  23830011.614   125227552.249 7  23830015.884    97580032.443 6
  20522026.027   107843920.659 8  20522025.792    84034342.004 8
  20979852.568   110249870.371 8  20979855.430    85909115.838 8
  21255658.748   111699200.630 8  21255657.918    87038457.924 8
 92  8 14  8 11 15.0000000  0  5G26G21G17G12G23                     -0.000000002
  23388903.120   122909430.468 6  23388903.297    95773689.138 6
  23822936.907   125190363.411 6  23822939.093    97551054.169 6
  20523681.763   107852633.613 8  20523683.807    84041131.298 8
  20976259.225   110230983.227 8  20976261.572    85894398.590 8
  21251117.073   111675346.963 8  21251118.474    87019870.659 8
 92  8 14  8 11 30.0000000  0  5G26G21G17G12G23                      0.000000016
  23395670.726   122944985.474 7  23395669.427    95801394.312 6
  23815849.460   125153099.625 7  23815847.533    97522017.415 6
  20525358.685   107861434.893 8  20525358.630    84047989.421 8
  20972681.117   110212189.141 8  20972684.931    85879753.846 8
  21246577.013   111651478.790 8  21246576.753    87001272.070 8
 92  8 14  8 11 45.0000000  0  5G26G21G17G12G23                     -0.000000019
  23402449.828   122980632.895 7  23402453.629    95829171.485 7
  23808765.287   125115916.046 7  23808772.227    97493043.220 6
  20527076.146   107870471.214 8  20527078.184    84055030.708 8
  20969151.082   110193640.680 8  20969155.280    85865300.513 8
  21242060.831   111627751.091 8  21242061.526    86982782.968 8
 92  8 14  8 12  0.0000000  0  5G26G21G17G12G23                     -0.000000100
  23409249.127   123016368.456 6  23409254.360    95857017.343 7
  23801714.757   125078812.258 7  23801711.129    97464131.203 6
  20528842.830   107879739.203 8  20528842.064    84062252.499 8
  20965669.039   110175337.423 8  20965672.535    85851038.255 8
  21237571.275   111604164.315 8  21237573.114    86964403.673 8
 92  8 14  8 12 15.0000000  0  5G26G21G17G12G23                     -0.000000037
  23416009.688   123051880.443 6  23416012.051    95884688.958 7
  23794602.353   125041481.328 7  23794607.779    97435042.174 6
  20530589.609   107888931.583 8  20530591.314    84069415.385 8
  20962174.433   110156971.144 8  20962177.793    85836726.872 8
  21233051.296   111580407.668 8  21233052.377    86945892.011 8
 92  8 14  8 12 30.0000000  0  5G26G21G17G12G23                      0.000000067
  23422756.050   123087323.813 7  23422755.951    95912307.099 7
  23787489.250   125004081.716 7  23787490.379    97405899.609 6
  20532352.630   107898203.324 8  20532355.419    84076640.101 8
  20958695.667   110138696.103 8  20958699.926    85822486.585 8
  21228527.973   111556633.442 8  21228528.538    86927366.644 8
 92  8 14  8 12 45.0000000  0  5G26G21G17G12G23                     -0.000000086
  23429570.721   123123163.152 6  23429575.210    95940233.826 7
  23780442.927   124967077.041 7  23780448.873    97377064.819 6
  20534222.298   107908015.496 8  20534222.609    84084285.932 8
  20955324.604   110120975.049 8  20955327.725    85808677.989 8
  21224090.243   111533303.017 8  21224088.662    86909187.098 8
 92  8 14  8 13  0.0000000  0  5G26G21G17G12G23                     -0.000000005
  23436323.755   123158628.584 6  23436324.540    95967869.202 6
  23773336.057   124929699.187 7  23773335.374    97347939.231 6
  20536045.158   107917601.689 8  20536046.800    84091755.691 8
  20951913.005   110103039.977 8  20951914.550    85794702.606 8
  21219585.642   111509650.178 8  21219587.676    86890756.313 8
 92  8 14  8 13 15.0000000  0  5G26G21G17G12G23                     -0.000000084
  23443118.689   123194336.205 6  23443120.435    95995693.258 7
  23766267.327   124892570.759 7  23766270.317    97319008.004 6
  20537945.628   107927581.725 8  20537945.933    84099532.321 8
  20948576.289   110085509.415 8  20948578.599    85781042.445 8
  21215141.047   111486293.675 8  21215143.084    86872556.448 8
 92  8 14  8 13 30.0000000  0  5G26G21G17G12G23                      0.000000063
  23449836.634   123229669.241 6  23449843.820    96023225.393 7
  23759132.161   124855073.207 7  23759134.529    97289789.144 6
  20539799.365   107937334.180 8  20539802.004    84107131.621 8
  20945200.339   110067764.676 8  20945201.888    85767215.378 8
  21210633.843   111462611.153 8  21210636.205    86854102.535 8
 92  8 14  8 13 45.0000000  0  5G26G21G17G12G23                      0.000000048
  23456609.687   123265248.876 6  23456613.905    96050949.761 7
  23752046.880   124817823.808 7  23752046.942    97260763.660 6
  20541729.375   107947476.450 8  20541731.770    84115034.691 8
  20941901.357   110050426.410 8  20941902.771    85753705.043 8
  21206182.552   111439223.466 8  21206185.924    86835878.375 8
 92  8 14  8 13 60.0000000  0  5G26G21G17G12G23                     -0.000000026
  23463404.167   123300913.108 6  23463401.064    96078740.042 7
  23744966.705   124780659.236 6  23744974.518    97231804.268 6
  20543707.505   107957850.595 8  20543706.143    84123118.419 8
  20938648.025   110033334.033 8  20938649.959    85740386.326 8
  21201761.349   111415970.885 8  21201761.348    86817759.476 8
 92  8 14  8 14 15.0000000  0  5G26G21G17G12G23                     -0.000000065
  23470171.700   123336512.735 6  23470175.436    96106479.961 7
  23737887.931   124743430.026 6  23737890.036    97202794.497 6
  20545695.349   107968311.783 8  20545697.084    84131269.990 8
  20935414.233   110016338.345 8  20935415.789    85727142.940 8
  21197332.180   111392703.445 8  21197333.460    86799629.016 8
 92  8 14  8 14 30.0000000  0  5G26G21G17G12G23                     -0.000000069
  23476933.427   123372049.853 6  23476938.160    96134171.188 7
  23730788.398   124706135.726 6  23730792.678    97173734.003 6
  20547703.795   107978859.242 8  20547704.196    84139488.777 8
  20932198.660   109999438.395 8  20932200.081    85713974.151 8
  21192902.250   111369422.006 8  21192903.148    86781487.628 8
 92  8 14  8 14 45.0000000  0  5G26G21G17G12G23                     -0.000000035
  23483683.147   123407522.871 6  23483688.431    96161812.418 7
  23723682.325   124668775.063 7  23723683.430    97144621.822 6
  20549726.884   107989490.647 8  20549726.793    84147772.973 8
  20928998.006   109982634.842 8  20929002.228    85700880.479 8
  21188470.520   111346128.109 8  21188470.468    86763336.545 8
 92  8 14  8 15  0.0000000  0  5G26G21G17G12G23                      0.000000041
  23490419.957   123442930.046 6  23490426.422    96189402.366 7
  23716553.147   124631345.977 6  23716561.157    97115456.303 6
  20551766.534   108000207.078 8  20551766.547    84156123.428 8
  20925820.215   109965928.440 8  20925823.109    85687862.519 8
  21184035.053   111322821.571 8  21184035.138    86745175.611 8
 92  8 14  8 15 15.0000000  0  5G26G21G17G12G23                     -0.000000042
  23497203.772   123478579.232 6  23497210.225    96217180.906 7
  23709477.840   124594159.990 6  23709484.411    97086480.213 6
  20553880.432   108011319.685 8  20553881.201    84164782.578 8
  20922718.624   109949629.465 8  20922721.759    85675162.009 8
  21179654.805   111299810.210 8  21179656.465    86727244.679 8
 92  8 14  8 15 30.0000000  0  5G26G21G17G12G23                      0.000000003
  23503949.080   123514010.067 6  23503952.228    96244789.282 7
  23702366.111   124556755.600 7  23702367.088    97057333.963 6
  20555982.036   108022365.691 8  20555983.186    84173389.857 8
  20919606.192   109933276.530 8  20919609.658    85662419.473 8
  21175243.885   111276628.671 8  21175245.168    86709181.152 8
 92  8 14  8 15 45.0000000  0  5G26G21G17G12G23                     -0.000000019
  23510705.168   123549530.551 6  23510711.540    96272467.531 7
  23695264.205   124519441.837 6  23695266.760    97028258.306 6
  20558130.234   108033656.547 8  20558131.760    84182187.910 8
  20916543.017   109917178.435 8  20916546.297    85649875.524 8
  21170860.666   111253587.702 8  21170860.373    86691227.150 8
 92  8 14  8 16  0.0000000  0  5G26G21G17G12G23                      0.000000091
  23517427.600   123584826.169 6  23517427.824    96299970.593 7
  23688122.751   124481910.239 6  23688124.739    96999012.924 7
  20560270.669   108044884.608 8  20560268.142    84190937.036 8
  20913467.921   109901024.693 8  20913472.098    85637288.191 8
  21166444.539   111230378.797 8  21166443.867    86673142.298 8
 92  8 14  8 16 15.0000000  0  5G26G21G17G12G23                     -0.000000064
  23524214.017   123620513.028 6  23524220.017    96327778.487 7
  23681058.847   124444783.177 6  23681059.210    96970082.766 7
  20562509.350   108056669.957 8  20562511.064    84200120.427 8
  20910501.000   109885433.418 8  20910505.422    85625139.149 8
  21162111.913   111207618.694 8  21162113.009    86655407.158 8
 92  8 14  8 16 30.0000000  0  5G26G21G17G12G23                      0.000000097
  23530904.763   123655671.136 6  23530910.368    96355174.358 7
  23673895.182   124407142.862 6  23673897.230    96940752.654 7
  20564682.545   108068088.174 8  20564683.631    84209017.725 8
  20907468.981   109869484.052 8  20907470.359    85612711.075 8
  21157690.320   111184384.064 8  21157691.609    86637302.265 8
 92  8 14  8 16 45.0000000  0  5G26G21G17G12G23                      0.000000086
  23537639.337   123691071.560 6  23537646.093    96382759.027 7
  23666782.298   124369758.403 6  23666782.965    96911621.927 7
  20566930.116   108079906.239 8  20566932.529    84218226.588 8
  20904512.236   109853948.255 8  20904513.994    85600605.252 8
  21153323.408   111161444.786 8  21153326.166    86619427.504 8
 92  8 14  8 16 60.0000000  0  5G26G21G17G12G23                      0.000000095
  23544365.816   123726409.449 6  23544371.146    96410294.992 7
  23659655.011   124332319.258 6  23659657.558    96882448.576 7
  20569196.794   108091816.711 8  20569199.259    84227507.467 8
  20901573.760   109838517.456 8  20901577.614    85588581.267 8
  21148957.557   111138491.085 8  21148958.224    86601541.513 8
 92  8 14  8 17 15.0000000  0  5G26G21G17G12G23                     -0.000000071
  23551140.202   123761995.087 6  23551143.101    96438024.015 7
  23652585.234   124295133.330 7  23652581.800    96853472.531 7
  20571542.178   108104129.787 8  20571542.359    84237102.071 8
  20898718.439   109823499.644 8  20898719.577    85576879.086 8
  21144644.290   111115832.715 8  21144646.482    86583885.648 8
 92  8 14  8 17 30.0000000  0  5G26G21G17G12G23                     -0.000000018
  23557840.863   123797213.295 6  23557845.381    96465466.733 7
  23645429.020   124257585.167 6  23645435.892    96824214.232 7
  20573844.388   108116228.983 8  20573844.755    84246529.995 8
  20895820.851   109808278.717 8  20895823.132    85565018.626 8
  21140270.376   111092855.642 8  21140274.336    86565981.441 8
